,ID,Name,Latitude,Longitude,District
0,4cef946bed62721e1a1361fd,Bangpakok 8 Hospital (โรงพยาบาลบางปะกอก 8),13.662666094846339,100.40711205687627,Bang Bon
1,51f0e26f498ea0e8d6adee35,รพ. บางไผ่ บางแค,13.662178663365502,100.40358404283039,Bang Bon
2,4d60de825b276dcb06021cc6,คลีนิกใจดีรักษาสัตว์,13.661813,100.40419,Bang Bon
3,4f39b3ebe4b03d7830f73e43,โรงพยาบาลจุฬา ตึก ภปร.ชั้น6,13.660062146485851,100.40218523630165,Bang Bon
4,599cdb319b04732d83b5a93f,แผนกทันตกรรม รพ บางประกอก 8,13.662671,100.407075,Bang Bon
5,4bc410ef2a89ef3bb7e5f588,Romrawin Clinic,13.765556894907135,100.64177020110452,Bang Kapi
6,4cedb9200acea35d39bae5ae,แผนกผิวหนังและศัลยกรรมเลเซอร์ ร.พ.รามคำแหง,13.761435480782714,100.63619505304034,Bang Kapi
7,4d8d1a01d265236a68a8ea16,ห้องผู้ป่วยใน อาคารC (รพ รามคำแหง),13.758683,100.636843,Bang Kapi
8,4d0373e58620224b27f2a240,CCU Ramkhamhang Hospital,13.758055706968273,100.63668299882059,Bang Kapi
9,5199f337498e73567c7bc15d,ห้อง 2617 อาคาร B โรงพยาบาลรามคำแหง,13.760024,100.636666,Bang Kapi
10,4e547c62aeb7b18559d2b181,ห้องทำแผล รพ.รามคำแหง,13.761417399599178,100.63622653917193,Bang Kapi
11,4d59378356f2b60cee8d762f,ห้องผู้ป่วยใน อาคาร B  (รพ.รามคำแหง),13.759825325273184,100.6365785078594,Bang Kapi
12,4e676242c65be127eedf894b,แผนกล้างแผล รพ.รามคำแหง,13.761841,100.635933,Bang Kapi
13,509fb277e4b0fe0aa5ed6f6b,ห้องเอกซเรย์,13.761290291020563,100.63625403667754,Bang Kapi
14,4d5c95b8fb186dcb2b0e029b,Ramkhamhaeng Hospital - check up center,13.761019831239842,100.63631057739258,Bang Kapi
15,4d8c2c8a96b9b60ce1741578,ห้องผู้ป่วยใน อาคาร A,13.761143327193183,100.63601762189765,Bang Kapi
16,52846656498e6f29a40bfd3f,ศูนย์ตรวจสุขภาพ รพ.รามคำแหง,13.758643585305782,100.63679848896726,Bang Kapi
17,4e4f59cbfa7626401ea8f77f,Cardiac Cath Room•Operating Room|Ramkhamheang,13.761163,100.636159,Bang Kapi
18,4deda34c52b13dda25e64da1,"แผนกกายภาพบำบัด, รพ. รามคำแหง",13.758664915114005,100.63690298017623,Bang Kapi
19,5aa11a1d054e29161fdb511d,แผนกการเงิน อาคาร A รพ.รามคำแหง,13.761307,100.636263,Bang Kapi
20,4da06cff2305a35df135ccaf,Ramkhamhage Hospital 3926호,13.758814,100.636684,Bang Kapi
21,4da2dbc72939b1f71f711157,คลินิกผิวหนังและศัลยกรรมเลเซอร์,13.761522915562104,100.63619149336202,Bang Kapi
22,4d75b62dbd73548161190cb3,Heart Center @Ramkhamhaeng Hospital,13.75895756253767,100.63711746250024,Bang Kapi
23,5077a1b4e4b02a5a816dfa9e,พรชัยคลีนิคการแพทย์,13.770018,100.647423,Bang Kapi
24,59ace7a6ccad6b451b3921c4,مستشفى ويشتاني,13.768125,100.638284,Bang Kapi
25,4f51cdb7e4b036244975f804,โรงบาลรามคำแหง,13.766070092701547,100.6520114473235,Bang Kapi
26,4d0d87801f6bf04dca167e31,Ramkhamheng Hospital,13.76293142989931,100.64148971025456,Bang Kapi
27,505fb63a498efd4a9c07dcd5,Seminar Room 10fr C Building Ramkhamhaeng Hoapital.,13.759009,100.636718,Bang Kapi
28,50ee7e9fe4b0a9d5ba56497a,Cashier C Ramkhamhaeng Hospital,13.75887,100.636718,Bang Kapi
29,4e23f1bdfa761d6710950dd3,แผนกสมอง ร.พ.รามคำแหง,13.758476,100.638226,Bang Kapi
30,4d64b62f7f84f04d81d7f8b4,คลินิกไตเทียม รามฯ42,13.759167,100.63994,Bang Kapi
31,529ff026498e684aee32c08e,Operating Room,13.760202555603493,100.63662800356319,Bang Kapi
32,5773a281498e1eac59dc4d75,ตึก A ห้อง 1506,13.761401,100.636287,Bang Kapi
33,5769971d498e19b3bc396e23,"Room No. 1406,  4th floors. A Building - Ramkhamhaeng Hospital",13.76139,100.636296,Bang Kapi
34,4e950f70b634aae40acf5dd7,2710@รพ.รามคำแหง,13.76016811372382,100.63695247605314,Bang Kapi
35,52f60de8498ef987a2594245,ฉุกเฉิน@โรงพยาบาลวิภาราม,13.761968696420078,100.65096637045944,Bang Kapi
36,4fc884f0e4b03339a667df9e,คลีนิคพิเศษสูติ-นรีเวช ชั้น4 รพ ราชวิถี,13.767721764023579,100.648425232609,Bang Kapi
37,4d29622f467d6ea8567fcf95,Plastic Surgery Services Samitivaj Srinakarin,13.754220009420411,100.64604903770115,Bang Kapi
38,4eae9eae30f855f5b3cae2bb,Cadiac Cath Lab,13.759699887275906,100.63779391000114,Bang Kapi
39,4c4aa91046240f47f1c234f2,Ramkhamhaeng Hosp. Building C(New Building),13.756569837331224,100.6369139792577,Bang Kapi
40,4f3d0790e4b0fc2b1f6a5dc8,โรงพยาบาลรามคำแหง. ห้อง3612,13.758963,100.637643,Bang Kapi
41,4e54854cb61c93816c0a46d9,ห้อง 3725 อาคาร C รพ.รามคำแหง,13.759129,100.637195,Bang Kapi
42,5170db23e4b0b0c4f935fcb7,Zone ทำแผล,13.759136572379713,100.63805239124294,Bang Kapi
43,4e79a9cf52b1fc6a4afcf93c,ห้อง2732 โรงพยาบาลรามคำแหง,13.7586083347375,100.63687548247825,Bang Kapi
44,4e59e87fd22dfba6f47b0318,Executive Healthcare,13.768749974048022,100.63826597394274,Bang Kapi
45,4d9ff8222305a35d8bfac2af,Baby clinic,13.761637,100.640128,Bang Kapi
46,4e7144a11f6ecfe82bc077c3,ห้องเจาะเลือด@รพ.รามคำแหง,13.759982109069824,100.63664245605469,Bang Kapi
47,4ef9583bbe7bb4784f48d59b,ห้อง3615,13.759094374164453,100.63669949740417,Bang Kapi
48,4d3a5fa681258cfa86baa55f,แผนกสูติ Ramkhamhang Hospital,13.761215,100.635989,Bang Kapi
49,51b40b36498eab8b44685691,ห้องตรวจอายุรกรรม,13.759164463349734,100.6382998739578,Bang Kapi
50,4f59c5e2e4b04e4607cafdb3,โรงพยาบาลราม ห้อง2520,13.7603648,100.6419108,Bang Kapi
51,4de33f7a7d8b2547eb17d3d1,เคาน์เตอร์จ่ายเงินรพ.รามคำแหง,13.757302554680173,100.63863535158082,Bang Kapi
52,4f7d4dabe4b0d6e7f2f8de38,operator,13.76046371459961,100.63672637939453,Bang Kapi
53,4fb67ae6e4b037516feb8426,3928 Ramkamhaeng Hospital,13.75907821127526,100.63679298943319,Bang Kapi
54,502b1d44e4b0d7ad1d5af614,โรงพยาบาลรามคำแหง ห้อง 3503,13.758646,100.638674,Bang Kapi
55,5e869688d3b47200081b0e46,หน่วยฑันตกรรม รพ.เกษมราษฎร,13.710298,100.398704,Bang Khae
56,4b753d04f964a52048022ee3,Kasemrad Bangkae Hospital (โรงพยาบาลเกษมราษฎร์ บางแค),13.710363565335015,100.39906954100074,Bang Khae
57,50d1780fe4b0f406b7e6693d,แผนกทันตกรรม โรงพยาบาลเกษมราษฎร์ บางแค,13.711006267817883,100.39921215851427,Bang Khae
58,50650defe4b0c6fb82d62871,แผนกเวชระเบียน โรงพยาบาลเกษมราษฏร์ บางแค,13.711276720859617,100.39875688031499,Bang Khae
59,4f9f53a7e4b0525528410092,X-ray Department At Kasemrad Bangkae Hospital,13.710769252582164,100.39814253263964,Bang Khae
60,5cee00a860255e002c0ccea4,โรงพยาบาลสัตว์แฟมิลี่แคร์,13.706151,100.39117,Bang Khae
61,4d76078ef86fa1cd3fc47ba8,Kasemrad Ward VIP,13.709839275975142,100.39844422070918,Bang Khae
62,52ca2ef2498edf10c4a633e5,แผนกอายุรกรรม เกษมราษฎร์ บางแค,13.710318210056498,100.39906954100073,Bang Khae
63,4f9cbf67e4b04f3d099c2432,Orthopaedic Clinic @ Kasemraj Hospital,13.71018067495931,100.39866911610608,Bang Khae
64,56262901498e3d52caa90a91,Kasemrat Hospital Bangkae,13.709443,100.393751,Bang Khae
65,4cb18ccfb4b0a35d7ace52ce,รักษาสัตว์แพทย์สัมพันธ์,13.711677,100.395716,Bang Khae
66,50650e9de4b0425a168af6fa,แผนกสูตินารี โรงพยาบาลเกษมราชฏร์ บางแค,13.710775742992269,100.39911890857616,Bang Khae
67,50f522b7e4b0ff6d32be6952,Surgery & Orthopedic Clinic,13.710673,100.399109,Bang Khae
68,4d60f127ef378cfaec8184a6,สถานีกาชาด 11,13.709961,100.398788,Bang Khae
69,4fbcc15ae4b0090211551274,แผนกเอ็กซเรย์ โรงพยาบาลเกษมราษฎร์ บางแค,13.71058776856588,100.39867758750914,Bang Khae
70,58f729efc365884dfe38ccdf,โรงพยาบาลเกษมราษฎ์บางแค แผนก หูคอจมูก,13.7112,100.39853,Bang Khae
71,4d67c1bba800721ea32d13b8,บุญญเวชคลีนิค,13.70971,100.397045,Bang Khae
72,51c44216498e8a3a57ae9e95,Ward 7 Kasemrad Hospital,13.7103119126645,100.39899823232822,Bang Khae
73,570c93f5498eb3e29406145b,โรงพยาบาลเกษมราษฏร์บางแค แผนกกุมารเวช,13.713105,100.401554,Bang Khae
74,4e4d810788775b38b2176fb9,"ER, kasemrad hospital",13.710084,100.398168,Bang Khae
75,533b7ded498ef9a4063d5e52,NICU-Nursery ชั้น3 โรงพยาบาลเกษมราษฏ์ บางแค,13.710311158244098,100.39867460136665,Bang Khae
76,560fa55d498e55bb4d2e87e7,pediatric 6th floor,13.712550919325196,100.39555354182411,Bang Khae
77,4cd92d182a805481208d9f2c,ศูนย์แพทย์อรุณอัมรินทร์ 2,13.709449916209778,100.39347472357771,Bang Khae
78,4d33eabc2e56236a5a612ab4,โรงพยาบาลสัตว์,13.709125,100.3894852,Bang Khae
79,4de239388877bcb6863eaa6a,528 โรงพยาบาลเกษมราษฎร์,13.710929,100.399495,Bang Khae
80,56775219498ed3ede6930459,แผนกกายภาพบำบัด ชั้น 3 รพ.เกษมรษฎร์ บางแค,13.710201,100.398529,Bang Khae
81,4ed716d202d57802e56eaa2b,Hemodialysis @ Kasemrad Bandkae,13.712381291488585,100.39550966126217,Bang Khae
82,50bf2b0de4b04b6b1641454e,จ่ายยา รพ.เกษมราษฎร์ บางแค,13.71439887092105,100.39462656947623,Bang Khae
83,4db6878a4b226b343db5fe85,OPD เด็กรพ.เกษมราษฎร์บางแค,13.711567,100.402261,Bang Khae
84,4f6aa223e4b01b218e9d2fcd,ร.พ.เกษมราษฐ์ หนองแขม,13.71257352336891,100.39524637833732,Bang Khae
85,50ad9d2ee4b05083be3deac7,คลินิกอายุรกรรม @ รพ.เกษมราษฎร์ บางแค,13.710535463640634,100.39900920288957,Bang Khae
86,521d48d111d2e649318101f1,ชั้น7 ห้อง752,13.711390708905764,100.39883367406757,Bang Khae
87,4db54f4081543d71da54d5d2,Bangkok Health Center,13.710301,100.400491,Bang Khae
88,4c85a3bb2f1c236a06e65643,Intouch medicare clinic,13.863247102474041,100.61416625976562,Bang Khen
89,500771cfe4b06e1d97b60936,สถานพยาบาล ศูนย์รักษาความปลอดภัย,13.857031,100.608587,Bang Khen
90,4f937130e4b04c3ff9dd7a70,โรงบาลเซนทรัลเยนเนอรัล,13.856397060756358,100.61485244607316,Bang Khen
91,4f0f6ee6e4b0bef3b82f594f,Bangkok Hospital @Internal Medicine,13.869219762261295,100.61093778782215,Bang Khen
92,4e39f7ebaeb7ec670287fef2,เมดิทัล คลีนิก,13.863067018409538,100.61714523713616,Bang Khen
93,54d8283f498ec90e34c58c50,ศูนย์พยาบาล ศรภ.,13.855026804517006,100.60912346587232,Bang Khen
94,4d81839246fd6ea810a76102,Thai Eye Center (โรงพยาบาลไทยจักษุ พระราม3),13.690576972308575,100.5088744678768,Bang Kho Laem
95,4da3dc98bf22a1430592d1f8,โรงพยาบาลสัตว์ดีรักษ์,13.691980634109186,100.50218379521777,Bang Kho Laem
96,4e2ea1c262e1fbac61027525,ศูนย์บริการสาธารณสุข 39 (ราษฎร์บูรณะ),13.68094049706425,100.50668871572576,Bang Kho Laem
97,4c3c3f365418897c60800803,Deluxe Animal Hospital,13.692025246621718,100.50212791112811,Bang Kho Laem
98,50aa0b7fe4b0354bafb155ed,เหรียญทองคลินิกเวชกรรม,13.691929,100.514888,Bang Kho Laem
99,4c13521082a3c9b62a4efbf8,คลินิกสัตว์ บ้านสัตวารักษ์,13.688812257360073,100.51221360706872,Bang Kho Laem
100,50a993efe4b05407c35e403d,สาธารณสุขราษฎร์บูรณะ,13.687152862548828,100.50387573242188,Bang Kho Laem
101,518738e8498e26e788a5a402,ซังฮี้คลินิกการแพทย์แผนไทย,13.784438,100.499325,Bang Phlat
102,4f6db34fe4b0463c93eb6f7a,VIP Room 9Floor. |  Vajira Hospital,13.784037978900168,100.49104398953757,Bang Phlat
103,4e3911dc52b11b0b4a9c7afd,Vichaiyut Hospital 1st floor X-RAY room center,13.787444331718614,100.49508533314665,Bang Phlat
104,4f82e75de4b06fa51890fef5,คลินิกรักสัตว์,13.78730464363848,100.49977483348914,Bang Phlat
105,4f82e761e4b00084dcab3ee9,คลินิกรักสัตว์,13.7858304977417,100.50386047363281,Bang Phlat
106,4d68c8d96297721e904ec0b5,CT Vajira Hospital,13.784763,100.495627,Bang Phlat
107,529335ab498e66f4af11acb4,คลินิคหมอสุวัฒน์,13.784213,100.487719,Bang Phlat
108,4e5eeb2962e1624313ddce2d,โรงพยาบาลพระมงกุฏ ห้องตรวจโรคอายุรกรรม ชั้น3,13.7794987,100.4871861,Bang Phlat
109,4d562e50143ca093de78b8fc,ชั้น 10 ตึกเฉลิมพระเกียรติ โรงพยาบาลศิริราช,13.784634015718224,100.49459662856607,Bang Phlat
110,4e832373722e93408aacadae,โรงพยาบาลเจริญกรุงฯ,13.787943268099603,100.4963427985148,Bang Phlat
111,513877e4e4b021e3dc719659,ตึกนิรมัย โรงพยาบาลวชิระ,13.784348445806305,100.49474488698299,Bang Phlat
112,4c4ba18b712ac92861c9266d,คลินิครักสัตว์,13.788827434714374,100.5013318117979,Bang Phlat
113,4b52b3f8f964a520578627e3,The Bangkok Christian Hospital (โรงพยาบาลกรุงเทพคริสเตียน),13.728620815097557,100.53118819403821,Bang Rak
114,4d36688ccf67a14340f4b228,Moh Bradley Building (ตึกหมอบรัดเลย์),13.728387529207437,100.53116882312183,Bang Rak
115,4b486ed1f964a5203a4d26e3,King Chulalongkorn Memorial Hospital (โรงพยาบาลจุฬาลงกรณ์),13.73062682497132,100.53637106997529,Bang Rak
116,5c908d04aa6c95002c847bf4,แผนกออร์โธปิดิกส์ โรงพยาบาลกรุงเทพคริสเตียน,13.728324,100.53121,Bang Rak
117,4b56a1dcf964a520351728e3,Saint Louis Hospital (โรงพยาบาลเซนต์หลุยส์),13.719299986734509,100.52514842832655,Bang Rak
118,52c8e579498e5d889502b8ac,อาคารหมอเวลส์ ชั้น7 โรงพยาบาลกรุงเทพคริสเตียน,13.729197776389263,100.53037779979987,Bang Rak
119,56063fc0498e96c1a1d1b507,โรงพยาบาลเซนต์หลุยส์,13.719425350048246,100.52294031688585,Bang Rak
120,4e56096b1838c793c0723238,OPD ภปร. ชั้น 3 รพ.จุฬาลงกรณ์,13.730216230042949,100.53647544753332,Bang Rak
121,4fac8444e4b0d8a3db64b0fb,ตึก ภปร. ชั้น 4 เจาะเลือด,13.730239340769641,100.53653783872754,Bang Rak
122,4f03fecca69d5515ac79fbfc,ห้องบริจาคพลาสม่าและเกล็ดโลหิต,13.733645357995472,100.53248171715907,Bang Rak
123,4c18b30550389c74268bb3cf,Moh Welles Building (ตึกหมอแวลล์),13.72902000499108,100.53097591617171,Bang Rak
124,4ce1c79e7e2e236ace3c921b,แผนกเอกซเรย์ โรงพยาบาลมเหสักข์,13.727797,100.519571,Bang Rak
125,559c8e35498ee31a0820cc36,แผนกเบาหวาน,13.728343,100.531076,Bang Rak
126,5dc47fe327946d0008bb8c19,ห้อง 708 อาคารหมอแวลส์ โรงพยาบาลกรุงเทพคริสเตียน,13.729588,100.530633,Bang Rak
127,5024c58be4b0bb3db3bafee4,Cardiometabolic Centre,13.724855609918885,100.5350526268279,Bang Rak
128,4fb74883e4b0b4f099562dc0,โรงพยาบาลจุฬาลงกรณ์ ตึกจงกลนีฯ,13.731076367038899,100.53478894047078,Bang Rak
129,4df2c32188772e1f8151a4f0,อาคารภปร. โรงพยาบาลจุฬาลงกรณ์ สภากาชาดไทย,13.729783872029286,100.53624471835329,Bang Rak
130,4f5ac4f2e4b05cd768c19243,แผนกเด็ก โรงพยาบาลบีเอ็นเอช,13.724502892473756,100.53477222708865,Bang Rak
131,5e45fe3dfdc6610008ef7c53,ห้องผ่าตัดศัลยกรรม ตึก ส.ก.7 | Operation Room (Or) Sk 7,13.731535,100.536529,Bang Rak
132,4dc7671045dd264552a1425d,Well Child Care Center@St.Louise hospital,13.718413723636584,100.52508800665912,Bang Rak
133,4e06efa5483b98d4170d9241,Rehabilitation And Physical Medicine,13.725114097268333,100.53453252562372,Bang Rak
134,4d80aaa61013236a85f78b35,Surgery/Orthopedic Center (ศัลยกรรม/ศูนย์กระดูกไขข้อและกล้ามเนื้อ),13.718649605828201,100.52519757521368,Bang Rak
135,4c79cd5a81bca09374dafe14,ศูนย์บริการสาธารณสุข 23 สี่พระยา,13.730845878716611,100.52029877664337,Bang Rak
136,4bff6a11369476b09dd38d1f,แผนกกระดูกและกล้ามเนื้อ โรงพยาบาลเซนต์หลุยส์,13.718551669222126,100.52520450492794,Bang Rak
137,51c42f4d498ebaa347be34b6,Digestive Care Center,13.72459456719152,100.53504713335441,Bang Rak
138,4e4a233c45dd81ecad892c42,แผนกศัลยกรรมกระดูกและข้อ,13.73019,100.536369,Bang Rak
139,55ac544c498ec4f8aceb5d5b,Orthopedic Clinic & Neurosurgery Clinic (คลินิกศัลยกรรมกระดูกและศัลยกรรมระบบประสาท),13.728392,100.530967,Bang Rak
140,4f9751a8e4b09ec46b8f59dc,โรงพยาบาลจุฬาลงกรณ์ อาคารภปร. ชั้น 2 แผนกผิวหนัง,13.730214036974381,100.53640952485128,Bang Rak
141,4f25f0c2e4b0b2f9910044d4,ห้องประชุมชั้น11 อาคารจิตเพียรธรรม รพ. เซ็นหลุยส์,13.718488516588721,100.52474744891452,Bang Rak
142,4f0e4ef6e4b0b3060768ba62,ตึก ภ.ป.ร. ( ชั้น ๑ ),13.731255752587705,100.53549210577306,Bang Rak
143,4fe7d615e4b02db7aeab87ae,"Pediatrics OPD, King Chulalongkorn Hospital",13.729086725488893,100.53752472326165,Bang Rak
144,509f1413e4b05e06b54e2d19,ตึก ภปร.ชั้น13 แผนกสูตินรีเวช รพ.จุฬาฯ,13.729771603937781,100.53626119898978,Bang Rak
145,509d339ae4b0a0263e182a04,ตึกอาทรล่าง,13.731642576686008,100.53520644421938,Bang Rak
146,4ce487c5d678a1cd48a0aa0c,ภาควิชาวิสัญญีวิทยา สิรินธร,13.731293602764236,100.53519101574709,Bang Rak
147,506d84dce4b0f68b611098a9,อาคารอาทร รพ.จุฬา,13.731040954589844,100.5344467163086,Bang Rak
148,4b13cd33f964a520489923e3,BNH Hospital (โรงพยาบาล บีเอ็นเอช),13.724776601175895,100.53458171964343,Bang Rak
149,4e7d0476b8f7ca135d90ffbb,"@ Bladley 10,BCH!",13.727908638429025,100.53050414334506,Bang Rak
150,51d98eac498e4407668e8846,Ward 6 @BCH,13.72779,100.529735,Bang Rak
151,4e3ba9e31495bf24a5c2899f,คลีนิคเด็ก BCH,13.727575,100.531636,Bang Rak
152,4d25959fbcc1224b9e08921b,Vongvanij Building (อาคาร ล้วน-เพิ่มพูล ว่องวานิช),13.731997247474457,100.535172782863,Bang Rak
153,4bf352ff6a31d13af196942e,Mahesak Hospital (โรงพยาบาลมเหสักข์),13.725361215531976,100.51947097600826,Bang Rak
154,500df5c1e4b05ed56b2e8ead,ห้องกินข้าว OR BNH,13.725132,100.534501,Bang Rak
155,51a7002e498e21bd449d43f9,OPD2,13.725369,100.51954,Bang Rak
156,4e27f8a2b0fba988bb66c1a2,ตึก เจริญสมศรี. ห้อง404 โรงพยาบาลจุฬาฯ,13.732279,100.535811,Bang Rak
157,4d464bd4befe236a867f07e3,Posayanont Building,13.732245,100.535584,Bang Rak
158,4d4e6a288af6721e003d1088,OPD กุมารฯ ภปร.1,13.731391,100.536828,Bang Rak
159,4d4fde3abd6ff04df3e1e10c,NS-ICU1,13.731447,100.537326,Bang Rak
160,4d2b4fe26e27a1439ba23624,"BNH, delivery Suit",13.728122,100.533093,Bang Rak
161,4eca0e9f722e1437995a1997,5th floor Ledsin Hospital,13.720588,100.519804,Bang Rak
162,4d2eaafc73e5a0935fbf53cf,Chula Heart Center,13.731039,100.536649,Bang Rak
163,5bf8cb88acc5f5002cda152b,The Move Club Physical Therapy Clinic Ratchada,13.830967,100.530655,Bang Sue
164,4c89eec01eafb1f750cf7535,ศูนย์บริการสาธารณสุข วงศ์สว่าง,13.827053112635694,100.5264887010035,Bang Sue
165,51357561e4b04ec6332cb83b,รพ.เกษมราษฏร์ ประชาชื่น,13.830310486658888,100.53124572853076,Bang Sue
166,4eb60736d3e3644ca6807bb6,การเงินผู้ป่วยนอก 1 โรงพยาบาลเกษมราษฎร์ ประชาชื่น,13.82772388861705,100.52806519434361,Bang Sue
167,4e53174318381367472af6e0,โรงพยาบาลเกษมราษฎร์ ภูติ-นรีเวช,13.834167083953789,100.52202852518788,Bang Sue
168,4d05b538e350b60c4cec8942,OPD ENT,13.828275,100.528403,Bang Sue
169,4f0bdb30e4b0dfc4349c79b1,ศูนย์จิตเวช โรงพยาบาลยันฮี,13.821610813947514,100.52294031688585,Bang Sue
170,4fc6c081e4b0420e6f89096b,ตึกพระเทพฯ @ รพ.รามาธิบดี,13.825764488497702,100.53162476327357,Bang Sue
171,4ed322978231b9ef8bd2945c,Thai Traditional Massage @ Kasemrad Hospital,13.834594598450296,100.53427255688227,Bang Sue
172,4ee181a961aff90fe3b622f8,ศูนย์ตรวจสุขภาพ โรงพยาบาลพญาไท 1,13.821245918095668,100.53231142440367,Bang Sue
173,4dfaf4aaae60c9cdd3884a92,Srivichai 1 Hospital (โรงพยาบาลศรีวิชัย 1),13.756021192354416,100.46993043229804,Bangkok Noi
174,5c5941ac67e5f2002c27b8bc,Bangkok Orthopedic Hospital (สามแยกไฟฉาย โพลีคลินิก),13.755833,100.469578,Bangkok Noi
175,4d2d3e83ae3a8cfa58dbc370,"ห้อง 200 ตึก OPD, รพ.ศิริราช",13.755876387342102,100.4769006947489,Bangkok Noi
176,5124b7c2e4b0d9d85244a041,โรงพยาบาลสมเด็จเจ้าพระยา,13.754266157625382,100.47783948687398,Bangkok Noi
177,4bc1ef5ef8219c74c9f3b310,Sriwichai Hospital,13.759501079937628,100.4699177021349,Bangkok Noi
178,51989b8e498e7f6d3c98cdbd,แผนกทันตกรรม,13.755933219032082,100.46931385210438,Bangkok Noi
179,568e2e18498edab9f9e905e0,หน่วยตรวจผู้ป่วยพิเศษศูนย์โรคหัวใจฯ ชั้น 4,13.759362,100.469172,Bangkok Noi
180,4e61fd248877954de7fdc50c,บ่้านสวนสหคลินิค,13.745812,100.470242,Bangkok Noi
181,4d2e6fbc940137044d02e6da,ห้องอายุรศาสตร์ (Internal Medicine) ชั้น 2 ตึก OPD,13.75651,100.476415,Bangkok Noi
182,509f333ae4b0bbf776cc5436,Cardiopulmonary Rehabilitation Unit,13.750125,100.478858,Bangkok Noi
183,56e7c40a498edadf1be66a02,สุพรีม สมาร์ท ไลฟ์,13.75971007951899,100.47809751915014,Bangkok Noi
184,5332113e498e7069fe2dd0f2,Operating Room (ห้องผ่าตัด),13.750125944722225,100.47675246529627,Bangkok Noi
185,4d2d2cf9762fa14312f07664,"ห้องตรวจ 207-208 ชั้น 2 ตึก OPD, รพ.ศิริราช",13.756336,100.477395,Bangkok Noi
186,4f5ea92be4b080c365dbb27b,ศูนย์หัวใจ โรงพยาบาลธนบุรี 2,13.75114388173055,100.47747714490927,Bangkok Noi
187,4f92502be4b0082564ee7a94,ศูนย์ตรวจสุขภาพ โรงพยาบาลยันฮี,13.750077378229163,100.46701376907392,Bangkok Noi
188,4c46d8f396abd13a1fd26e01,แผนกหู คอ จมูก รพ.พญาไท,13.754944298440952,100.47712578437817,Bangkok Noi
189,528ac644498e8c12b96ece2d,ตึกผู้ป่วยนอก ชั้น3 หน่วยฝากครรภ์,13.754878997802734,100.47868347167969,Bangkok Noi
190,4b9d10d4f964a520938c36e3,โรงพยาบาลสัตว์ตลิ่งชัน,13.753464,100.476773,Bangkok Noi
191,4ef544f861af302a989918ce,ราชพถกษ์ไตเทียม,13.751426147032294,100.46720040849286,Bangkok Noi
192,4ff7e555e4b0734a7aeebc08,Cashier and Pharmacy Dispensary,13.75199333105127,100.47641208746457,Bangkok Noi
193,51878eb8498e4044a9936b4b,รพ.ศรีวิชัย,13.755319595336914,100.47632598876953,Bangkok Noi
194,4caf173d1463a143e27f91a9,Dr.Pet Animal Hospital (โรงพยาบาลสัตว์ด๊อกเตอร์เพ็ท),13.762322860395892,100.4730610049066,Bangkok Noi
195,4d8166370d5b8cfa6d0c3f28,แผนกทันตกรรม โรงพยาบาลตากสิน,13.729638,100.469334,Bangkok Yai
196,4e830d86b634192147f5bc9b,ศัลยศาสตร์ ศิริราช หมอธรรมวัฒน์  ปรคนธรรพ์,13.729405403137207,100.47346496582031,Bangkok Yai
197,4e1262e0d22d759bae6b22a7,Department Of Obstetric and Gynecology,13.730089,100.470572,Bangkok Yai
198,4f1a56d5e4b0f67a959cff70,banjaikuah,13.728090261217016,100.47165242083072,Bangkok Yai
199,50264fd6e4b0dfdf250c5acd,ร.พ บางไผ่,13.723461667321953,100.46551517818112,Bangkok Yai
200,4f93de41e4b0f08d406c607c,ตลาดพลูคลินิก,13.720585,100.476208,Bangkok Yai
201,52025422498e53fc148009be,Ansh's Room,13.72326,100.466199,Bangkok Yai
202,4d69ff901b63a1cd1e60472d,รพ.เยาวรักษ์,13.720020564477954,100.47453454224625,Bangkok Yai
203,50bb652de4b0cbe6431e6fa7,ห้อง 1142,13.724225,100.465539,Bangkok Yai
204,518db8ed498e15ff87790bcf,5 เจดีย์คลินิก,13.721211,100.478232,Bangkok Yai
205,4fa615b6e4b0217538926b14,ห้องพิธีศพ โรงพยาบาลธนบุรี,13.733202934265137,100.47708892822266,Bangkok Yai
206,50c6f616e4b072dfb83bdfa9,ห้องทำแผล โรงพยาบาลบางไผ่,13.724865,100.464964,Bangkok Yai
207,504a2309e4b0fae9a738e5ae,Ward15/1558,13.726707458496094,100.46843719482422,Bangkok Yai
208,4b563be4f964a520a40628e3,Bang Phai Hospital (โรงพยาบาลบางไผ่),13.724630968937207,100.46497562451331,Bangkok Yai
209,56738cbd498e8b94baa6d4e4,Vibharam Nawamin Hospital (โรงพยาบาลวิภาราม-นวมินทร์),13.799206,100.64751,Bueng Kum
210,4f7bb61ee4b041ee7a0bd21f,โรงพยาบาลเวชธานี|แผนกเวชศาสตร์ฟื้นฟู,13.807702665429815,100.64584016371298,Bueng Kum
211,4ecefc890e01f1a87e28732a,+Bumrungrad International Hospital+,13.813582711380072,100.64658817624998,Bueng Kum
212,4ebde1976da15b4dde25a8ad,โรงพยาบาลลาดพร้าว ศัลยกรรมกระดูกและข้อ,13.795495537769085,100.65231947222118,Bueng Kum
213,4f016baca69d45461f0723f4,ENT @ Samitivej Hospital,13.813735449266604,100.64667067800168,Bueng Kum
214,4ce4c7eeb4373704635bf5ce,Laser Vision LASIK Center,13.831060207539787,100.55987507716138,Chatuchak
215,4be4c247bcef2d7fb51203e5,Laser Vision,13.83096834031448,100.55983702929302,Chatuchak
216,501a4bd7830279a79e5a9078,LASIK Laservision International LASIK Center,13.828808232486193,100.5599856376648,Chatuchak
217,4d7e6402ebc154815241e1a6,Vipawadee,13.830898249087621,100.55842483663784,Chatuchak
218,4e52302c22710da1b3da7840,ห้องยา ENT | Siriraj Hospital,13.82790987142789,100.55718849899363,Chatuchak
219,51f27614498e8cfa73da4a6b,Viphavadi Hospital (ห้องพักผู้ป่วยเดี่ยวพิเศษ),13.838033946135283,100.56504639425106,Chatuchak
220,52628a59498ee4fb44556a73,The Art Clinic,13.828549741353699,100.56840406310543,Chatuchak
221,4f4c59fee4b0ca29906609bb,คลีนิกพรีเมี่ยม อายุรกรรม ศูนย์การแพทย์สมเด็จพระเทพรัตน์ โรงพยาบาลรามาธิบดี,13.824275211555705,100.56444741218455,Chatuchak
222,4e72a7bd483b4dd0bde046ca,OPDเด็ก เกษมราษฎ์ประชาชื่น,13.827747820249153,100.54789726648919,Chatuchak
223,4db283dd0cb609fc09229f8c,แผนกอายุรกรรม | รพ.พญาไท2,13.827496016246808,100.54780935866067,Chatuchak
224,4cdba1dbd54954812d383db2,สมิทธิเวท SCB HO,13.826961,100.564737,Chatuchak
225,4cad36eaf47ea1432f689821,"Acupuncture Clinic, Vibhavadi Hospital",13.838357230663895,100.56173280836818,Chatuchak
226,4e51cda562e14b77e3bd344e,ศูนย์ผิวหนังและเลเซอร์วิภาวดี,13.840301461532597,100.5582160317809,Chatuchak
227,4d93329914228cfa1b485d7b,อายุรกรรมชั้น1 โรงพยาบาลเกษมราช ประชาชื่น,13.834767147798118,100.56314505178116,Chatuchak
228,4d16a4e181cea35da870e1ec,Bang Khun Thian Nursing Home (สถานพยาบาลบางขุนเทียน),13.699184596885974,100.46961665153503,Chom Thong
229,4d63a9dfd6b26ea8b79a517a,ร.พ.บางขุนเทียน,13.699126177710239,100.47010434749885,Chom Thong
230,4d3689fbb5936dcb577cf3b8,สถานพยาบาลบางขุนเทียน 1,13.699198,100.469829,Chom Thong
231,4d44f30cc3e5f04dae4da020,โรงพยาบาลสัตว์ วัดไทร,13.699739797131262,100.46279252664661,Chom Thong
232,51288cc4e4b01971ee660701,สถานพยาบาลบางขุนเทียน,13.699621200561523,100.47525787353516,Chom Thong
233,4c81f991d8086dcb1f617252,Thonburi - Suksawat Hospital,13.693399018768227,100.474058,Chom Thong
234,5062e66ce4b0a4b603d73826,Children Center Phyathai3 Hopital,13.69216237797515,100.46362138977112,Chom Thong
235,4ebc81db2c5bf3359a401afa,โรงพยาบาลบางขุนเทียน,13.695768935314211,100.46924797779754,Chom Thong
236,4ea7575d7ee5c765188e59c5,คลีนิคเอกชัยการแพทย์,13.699395383072748,100.46239182068744,Chom Thong
237,4c087a73009a0f47bc47e6bf,ศูนย์สาธารณสุข 29,13.705186948607194,100.47210806444117,Chom Thong
238,4dcbaba48877502200d9c544,ศูนย์การแพทย์ปฐมภูมิ และการแพทย์ทางเลือก จอมทอง โรงพยาบาลตำรวจ,13.69290688347026,100.46106845140457,Chom Thong
239,4bfdf2b1b68d0f47409ce957,สถาบันราชานุกูล,13.761304292923766,100.55460048598357,Din Daeng
240,4bfa51da508c0f47b7f03f31,Burachat Chaiyakon Hospital (โรงพยาบาลบุรฉัตรไชยากร),13.752089853579893,100.55159099746615,Din Daeng
241,502da8f7e4b01042a294359a,"Health Center, Phayathai 1 Hospital",13.751769065856934,100.54816436767578,Din Daeng
242,4f30824be4b0d77c272d3730,X-ray Department,13.769788336327244,100.5513641985096,Din Daeng
243,4d469bd57e2e5481af11758f,ศูนย์บริการสาธารณะสุข 4 ดินแดง,13.769791226011861,100.55808237756179,Din Daeng
244,4d9d5e07c4b537042596142e,Phayatai hospital1,13.759129638382385,100.54604894171287,Din Daeng
245,500e9e2083025c04e6772301,ดินแดงคลินิกเวชกรรม (ทางด่วนเพื่อชุมชน),13.763409584747315,100.54857266293557,Din Daeng
246,50a9b0a0e4b0370ed1b10669,โรงพยาบาลบุรฉัตรไชยการ,13.752203,100.551411,Din Daeng
247,4de20b4718385df2b01a56da,ตึกสิรินธร ชั้น10 รพ.ราชวิถี,13.753010296570965,100.55346859659926,Din Daeng
248,58980e4a158b960ff3a67f77,ตึกชมพูพันธุ์ทิพย์ สถาบันราชานุกูล,13.762136,100.554261,Din Daeng
249,4d8d6da95091a1cd93ad7801,บ้านคนชรา ดินแดง,13.759471983484723,100.55578733641434,Din Daeng
250,4e5ad79152b1b78b81afeb0f,รพ.พระมงกุฎ ห้องตรวจโรคอายุรกรรม,13.76812017072492,100.55782589766005,Din Daeng
251,4d897c9e5ecdf04d8e42ab8a,มูลนิธิราชานุกูล,13.760107,100.556325,Din Daeng
252,4db8f6f943a1e5b1e2c0093b,ห้องผ่าตัดรพ.รถไฟ,13.752163330784999,100.55152903213072,Din Daeng
253,4f6452e3e4b0c7552ca9115e,โรงพยาบาลรถไฟ,13.751922648504799,100.55161144905209,Din Daeng
254,50f4f29de4b0bd869f3963a7,ศูนย์บริการสาธารณสุข 4 ดินแดง,13.769748915808334,100.55811162953012,Din Daeng
255,4d9e7133925f236ada603a44,รพ.บุรฉัตรไชยากร มักกะสัน,13.752131960437847,100.55159981375796,Din Daeng
256,4eb36250f790d87d01d760ab,ห้องยา โรงพยาบาลทหารผ่านศึก,13.767598500259059,100.5516554047737,Din Daeng
257,4fb8d9c3e4b003f23396cceb,ชั้น 19 อาคารเฉลิมพระเกียรติ,13.755863,100.549416,Din Daeng
258,4fd7e399e4b0c849339f8178,โรงพยาลบูรฉัตร,13.759911442490685,100.55139167075926,Din Daeng
259,4d87fc9799c2a1cd7a3c5fd7,ห้องยาพลเรือน รพ.ทหารผ่านศึก,13.770615,100.554713,Din Daeng
260,4ce35eadbddcb1f7304a7c89,PYT1,13.751197,100.549362,Din Daeng
261,4cb0489caef16dcb2c6baf54,Bumrongrad,13.758315,100.557965,Din Daeng
262,4dca0b8ad16495ca5ae1f5be,OPD-ENT โรงพยาบาลรามาธิบดี,13.756647559088659,100.54721598301738,Din Daeng
263,51fb4b87498e57d7e28c2de7,อาคารผู้ป่วยนอก สถาบันราชานุกูล,13.759255,100.549001,Din Daeng
264,4c4fcb4e38b0be9a9ecc71fc,Donate Blood Van,13.758717,100.565428,Din Daeng
265,51bfe577498e2505f2e73ab8,IT Center Veterans General Hospital (ศูนย์เทคโนโลยีสารสนเทศ โรงพยาบาลทหารผ่านศึก),13.770385416464487,100.55175979969671,Din Daeng
266,4dfd9332d164848a03f9c37c,Paolo Memorial Samutprakarn Pediatric,13.764396,100.557233,Din Daeng
267,4eeab7f58b81bff6aa6c8575,โรงพยาบาลโรคผิวหนัง,13.7701631618089,100.55847429048914,Din Daeng
268,4ffcf45de4b0d5dff490f3f8,ศูนย์บริการสาธารณสุขดินแดง,13.770138571262294,100.55930402018048,Din Daeng
269,4de44cd4d164df857527dc53,Klang,13.756055,100.549215,Din Daeng
270,4f104ff9e4b00420531c045b,Bangkok Hospital C708,13.760059941337722,100.54890821255981,Din Daeng
271,4e1d7a85fa7653a9b2e311e7,Pediatric Clinic @ Praram9 Hospital,13.7639638,100.5499997,Din Daeng
272,4f1e126fe4b0d881fce711bf,ห้องผ่าตัด ชั้น2 โรงพยาบาลทหารผ่านศึก,13.769696222967479,100.54969939550085,Din Daeng
273,4e780bf3aeb726a0e62ef2c1,Dejha Hospital,13.758608795564976,100.55416091563623,Din Daeng
274,4e77093288775d593ea61da7,323 PUB,13.764738966383044,100.55872705503316,Din Daeng
275,59c505ae35f98307199c3714,Samitivej Clinic,13.919315,100.60194,Don Mueang
276,50a4847ae4b0d901b4b92c1f,รถเอ็กซเรย์ เคลื่อนที่,13.921377,100.60237,Don Mueang
277,56ac6b3b498ee6c0b77d4a03,คลินิกเฉพาะทางไตเทียม รื่นฤดี,13.778184044021867,100.51218065444222,Dusit
278,5d95a086aa7b540007ad58ea,อาคารทีปังกรรัศมีโชติ โรงพยาบาลวชิระ,13.78117,100.50912,Dusit
279,4cc133cd1da0a1cdb9c098c6,ตึกสูตินรีเวชกรรม @วชิรพยาบาล,13.780866304577827,100.5094840713651,Dusit
280,5022f42fe4b062a81a8c3a66,ศูนย์โรคหัวใจ โรงพยาบาลวชิระ,13.780259977941913,100.50856692169732,Dusit
281,4f509d54e4b0e40851f5b580,ตึกสูติกรรม@วชิรพยาบาล,13.780583550185511,100.50725437019375,Dusit
282,4d6309b8855e5481c098f679,ห้องเจาะเลือด ภาควิชาพยาธิวิทยาคลีนิก@รพ.วชิระพยาบาล,13.780639102623415,100.50849552719849,Dusit
283,4dad41a06e81d745d73dca88,Orthopedics Department Vajira Hospital,13.780547,100.50884,Dusit
284,4dcb5412d22d7ffe9d2c7f21,OPD Eye Vajira Hospital,13.780504,100.508859,Dusit
285,4d67a38afd1b8cfa4e1920f0,คลินิกพิเศษ วชิระพยาบาล,13.778435682346412,100.51152160440247,Dusit
286,50488f47e4b06b582167ccab,หอผู้ป่วย นรีเวชกรรม วชิรพยาบาล (Vajira Hospital),13.780744,100.507777,Dusit
287,53d35793498e4febaf3633d3,รพ.วชิรพยาบาล,13.780356934135376,100.50825937656052,Dusit
288,4b73749df964a52069af2de3,Vajira Hospital (วชิรพยาบาล),13.780435926169652,100.50889094358419,Dusit
289,4d33aa17329e5481d2dabb1d,602 Operating room | Vajira hospital,13.78039,100.512592,Dusit
290,4cbe263b9ca85481bd0eaf16,Private Surgery 3,13.777804,100.507666,Dusit
291,51885569498e9d6d154c395c,ห้องผ่าตัด วชิรพยาบาล,13.780411686420793,100.5085449541533,Dusit
292,4d8fc9b11d06b1f70673673b,อายุรกรรมหญิง1 14fl Petcharat Building,13.780440129989099,100.50845159214995,Dusit
293,4db608986a23c31a033723cb,อายุรกรรมหญิง 2 ชั้น 15,13.78002,100.508772,Dusit
294,511ae3cee4b052051f7cd7cc,ห้องตรวจออร์โธปิดิกส์ โรงพยาบาลวชิรพยาบาล,13.781017017102927,100.50823191722354,Dusit
295,4cdb4e673f6a8cfaa37feaea,ตึกพยาบาล,13.776600470846269,100.51876043066439,Dusit
296,5175e80ae4b0d40cbf2f6440,วชิรพยาบาล ตึกอำนวยการ,13.780547743385558,100.50855159759521,Dusit
297,4ccbc912ee23a143a3161aa8,ตึกเพชรรัตน์ ร.พ.วชิรพยาบาล,13.780329955273563,100.50883866883886,Dusit
298,4f29f99fe4b00359237ea0fb,ศูนย์สุขภาพเท้า,13.778818177884997,100.51067583046766,Dusit
299,4e127b65b61c637b97b73f70,OPD จิตเวช,13.780971,100.509018,Dusit
300,51b817cc498ea7866252e8d8,ห้องผ่าตัดชั้น5 รพ.วชิระ,13.781160242151692,100.50840765712249,Dusit
301,4cc3f620306e224b596f9a6c,Petcharat Building|Private Surgery 3 | Vajira Hospital,13.780491,100.509025,Dusit
302,4d5b2eeddc5f224bb5d7ad64,Cineplex 6th Floor@ Petcharatt Building | Vajira Hospital,13.780043,100.508907,Dusit
303,5273094c498ed82baf00c487,ระบบประสาทวิทยา ตึกเพชรัตน์ วชิรพยาบาล,13.78034022008654,100.50895135457131,Dusit
304,5152f83ee4b01a2c92553f31,ชั้น 17 อาคารเพชรรัตน์ วชิรพยาบาล,13.782238,100.509698,Dusit
305,50ed3661e4b0b107f1b333f0,ชั้น๑๕ อาคารเพชรรัตน์ รพ.วชิรพยาบาล,13.777272,100.512685,Dusit
306,533d1df4498e41bec65c5f0e,หน่วยระบบทางเดินอาหาร วชิรพยาบาล ตึกเพชรรัตน์ ชั้น 2,13.778321,100.512411,Dusit
307,52031f56498e91d978329666,ตึกวชิราวุธ ชั้น7 @วชิรพยาบาล,13.786283493041992,100.51376342773438,Dusit
308,507380a8e4b04f0153400595,OR101วชิรพยาบาล,13.779845119238287,100.50860536491209,Dusit
309,4ea7eb8f8b8154b19fd9e6b0,ห้องกายภาพบำบัด รพ.การไฟฟ้านครหลวง,13.786911490418035,100.50984104827074,Dusit
310,4d9947f0af3d236a7f2b50c7,ห้องผ่าตัดเล็ก ชั้น1 ภาควิชาศัลยศาสตร์ คณะแพทยศาสตร์วชิรพยาบาล,13.78129,100.508199,Dusit
311,4eb8969ff5b94bd85d254c22,ตึกเพชรรัตน์ ชั้น 12 @ วชิรพยาบาล,13.77841567993164,100.5110855102539,Dusit
312,4dc74fdbd4c0ad9c0fb69115,ร.พ.วชิรพยาบาล ห้องตรวจออร์โธปิดิกส์,13.779897658872894,100.50868225139001,Dusit
313,5045c74be4b0118370cb212b,ตึกเพชรรัตน์ ชั้น17 วชิรพยาบาล,13.778448,100.51254,Dusit
314,4febd77de4b03cd042176baf,ศูนย์โรคเบาหวานวชิระ หน่วยต่อมไร้ท่อ,13.780241,100.508527,Dusit
315,4f9aecd5e4b0a3d1db351f96,SICU วชิรพยาบาล,13.781123,100.508367,Dusit
316,4e00f6bf18a8abfb3f6c1721,Vajira Hospital@Private Surgery3,13.7801808644808,100.50863457787554,Dusit
317,53a410e2498ecd1a946b8887,ICU.โรคหัวใจ ชั้น4 ตึกวชิราวุธ วชิระพยาบาล,13.780536961690826,100.50835823024183,Dusit
318,53cf332a498e0c5698d04647,Battlefield counter no.7,13.777166,100.512539,Dusit
319,4d4e56f14f67224b8be66150,วิทยาลัยแพทยศาสตร์กรุงเทพมหานครและวชิรพยาบาล,13.780971017149932,100.50822642535715,Dusit
320,4e768893b61c22c638ab1037,คลินิกนอกเวลา @ วชิรพยาบาล,13.7810969,100.5099038,Dusit
321,507583b8e4b056b4954dc5ad,ห้องพักฟื้น วชิระพยาบาล,13.779258888120097,100.51224655970705,Dusit
322,4d8577f55ad3a093aeb1e6fd,Ionto Room@Yanhee,13.787318,100.516163,Dusit
323,4e504d8252b1e893ad68825c,ศูนย์ซับน้ำตาผู้ติดยาเสตติด วชิรพยาบาล,13.780698459291672,100.50942565003776,Dusit
324,4cf860145698a093ac3605fc,MEA Hospital (โรงพยาบาลการไฟฟ้านครหลวง),13.786824037353057,100.5099323043584,Dusit
325,5aa60ba564c8e108493e4e1b,โรงพยาบาลสัตว์ห้วยขวาง HUAIKHWANG PET HOSPITAL,13.768051,100.586407,Huai Khwang
326,515d7f64e4b0f5d2cc4549ff,คลินิคสุจินดาการแพทย์,13.778545,100.584183,Huai Khwang
327,4d12a3fbffa36ea8da86fada,Phyathai 1 Acute Stroke Unti,13.766054,100.590964,Huai Khwang
328,4e7819e1aeb726a0e634db6f,Paolo Memorial Hospital Building #4,13.770113015834767,100.58586296771588,Huai Khwang
329,4d706d1f9afdb60c93483352,ศูนย์โรคภูมิแพ้และหอบหืด รพ. กรุงเทพ,13.763624,100.5899,Huai Khwang
330,5119c90ce4b091f455c17f3b,KIS Nurse Office,13.768152,100.591534,Huai Khwang
331,513d4ac0e4b0cb85ec5af0d0,ห้องตรวจโรคศัลยกรรมประสาท,13.767532620766621,100.57631787479792,Huai Khwang
332,4e4f0fee2271a1bdc3d9eef6,ศูนย์หัวใจ  ศูนย์แพทย์พัฒนา,13.765036736628867,100.59444526113738,Huai Khwang
333,5abcbaddf1936e34be584930,รพ.อินทรารัตน์,13.831212,100.672297,Khan Na Yao
334,4da7b45904376c3368774cd5,โรงพยาบาลสินแพทย์ แผนกเอ็กซเรย์,13.822609,100.678612,Khan Na Yao
335,50603a8ee4b0a0608599f641,รพ.สินแพทย์,13.829482728035238,100.67233227650087,Khan Na Yao
336,58763e306ad5a155f465856e,คลินิกอายุรกรรม(นอกเวลา),13.831253,100.665237,Khan Na Yao
337,51c863cf498ec60997d2b0e6,ชั้น4 ห้องผ่่าตัด รพ.สินแพทย์,13.831686,100.665745,Khan Na Yao
338,4daab0446a2303012f1381a8,อายุรกรรมทั่วไป,13.82401574,100.68135991,Khan Na Yao
339,4f2a1e8ae4b0da71051f5183,แผนกสมอง โรงพยาบาลสินแพทย์,13.833321849437102,100.66779353631757,Khan Na Yao
340,506aaff0e4b0bafc66a2f891,Ward 15 Synphate Hospital,13.831249693334332,100.66525193849375,Khan Na Yao
341,4fe6ac41e4b0221ceb5bbf9f,แผนกสูติ-นรีเวช รพ.สินแพทย์,13.831451737127605,100.67020866869656,Khan Na Yao
342,50896444e4b035c4ea7d280d,Ward 2/5 รพ.สินแพทย์,13.831247,100.665253,Khan Na Yao
343,4d9c4f399262b1f7a3f96c26,โรงพยาบาลสินแพทย์. แผนกทางเดินปัสสาวะ,13.83584,100.671532,Khan Na Yao
344,51585505e4b0226ab900b0de,คลินิคครอบครัว,13.832377,100.669079,Khan Na Yao
345,4ffd70f5e4b09b782052f37f,รพ.สินแพทย์ ห้อง 309,13.833073,100.666148,Khan Na Yao
346,4fd060cce4b0e603b09d872e,โรงพยาบาลด่านขุนทด,13.831889,100.671116,Khan Na Yao
347,4d81b6bf6282721e077ce44d,ห้องพักฟื้นผู้ป่วยเตียง 27 ตึก 4 ชั้น 3,13.821132,100.682149,Khan Na Yao
348,4d8453d981fdb1f78b2efabf,Ramkamhang Hospital แผนกเจาะเลือด,13.863367393948971,100.69780833952328,Khlong Sam Wa
349,51cbd1cd498eaace9d04b002,ห้องประชุมนายแพทย์ อรุณ ตึกวิชาการ สถาบันจิตเวชศาสตร์สมเด็จเจ้าพระยา,13.730935,100.504578,Khlong San
350,4fd9cfd8e4b00cc4285dfc05,พิเศษ14รพ.ตากสิน,13.727644119126396,100.50561233435499,Khlong San
351,57f5fe37498e4499892a6165,ศูนย์ผิวหนัง SiPH,13.723639,100.505011,Khlong San
352,4ffe2d4ee4b07827a746fa80,หอผู้ป่วยพิเศษชั้น15 โรงพยาบาลตากสิน,13.734816555764715,100.50317404786959,Khlong San
353,50ac28f1e4b0d5e8280e0002,ห้องจักษุวิทยา ร.พ.ตากสิน,13.72818142449343,100.51135684263366,Khlong San
354,50874c41e4b0280e4ff7df61,ฝ่าย HR สถาบันจิตเวชศาสตร์สมเด็จเจ้าพระยา,13.728008414459255,100.5027402154165,Khlong San
355,5be28c9c03132000399742f4,คลินิคศัลยกรรมลูกเป็ด รพ.ตากสิน,13.730532,100.507996,Khlong San
356,5d5253635f56190008457864,ห้องจ่ายยานอก 1 รพ.ตากสิน,13.730656,100.508256,Khlong San
357,561b42b9498e92e0cd592731,แผนกเอกซเรย์ โรงพยาบาลตากสิน,13.73108991747961,100.5082044578948,Khlong San
358,4f44c0c4e4b0a28181e7da6f,ผู้ป่วยนอกสูตินารีเวชกรรม ANC โรงพยาบาลตากสิน,13.730579318907017,100.50788593028346,Khlong San
359,5969f29e3c858d0ea700ee3b,Teeraporn Clinic,13.729411,100.508612,Khlong San
360,4fbc7b9ee4b06c46324edcd3,ห้องเจาะเลือด  รพ.ตากสิน,13.729727377951939,100.50849003531626,Khlong San
361,509222b5e4b0f2ad78aa2a17,ห้องประชุมศาสตราจารย์หลวงวิเชียรแพทยาคม ตึกวิชาการ สถาบันจิตเวชศาสตร์สมเด็จเจ้าพระยา,13.730881,100.504421,Khlong San
362,4d8c22e5c640224bd42e7254,Operating Room @Taksin Hospital,13.729980744649678,100.50834567743287,Khlong San
363,503312b8e4b0cd7f6eb6bd3d,โรงพยาบาลเอกชัย,13.728543,100.512038,Khlong San
364,503b2aa8e4b078a4e830daa0,ห้องตรวจศัลยกรรมกระดูก โรงพยาบาลตากสิน,13.72961711883545,100.50772857666016,Khlong San
365,4c0c467b009a0f47ef76ecbf,mECT รพ สมเด็จเจ้าพระยา,13.730675,100.504683,Khlong San
366,4d0f25a29302a35db18c736e,หน่วยสมรรถภาพปอดและหัวใจ รพ.ตากสิน,13.72835,100.509817,Khlong San
367,4ee5d9442c5b5fc6cdaa9fb0,"Taksin Hospital, 5th Floor - ICU zone",13.731100597690606,100.50770469955104,Khlong San
368,4e83fc3429c2cfe7239a221c,รพ.ตากสิน ชั้น 5 ห้องผ่าตัด,13.730532120436813,100.50814404740059,Khlong San
369,4b55f1a3f964a520eff727e3,Taksin Hospital (โรงพยาบาลตากสิน),13.730356641002906,100.50799027541339,Khlong San
370,5091e899e4b00281a4c35c85,แผนก เอ็กซเรย์ คอมพิวเตอร์ ชั้น3,13.73104000091553,100.50762939453125,Khlong San
371,538c0fc3498e3f763f59825d,ห้องประชุม ชั้น 5 ตึกผู้ป่วยนอก สถาบันจิตเวชศาสตร์ สมเด็จเจ้าพระยา,13.732098,100.503556,Khlong San
372,50ce9189e4b09a6da404e4ea,สถาบันฯสมเด็จเจ้าพระยา ห้องกายภาพบำบัด,13.730638,100.505466,Khlong San
373,4e7726e5fa76059701be61d4,หอผู้ป่วยเฉลิมพระเกียรติ ชั้น 7 ใต้,13.734132,100.495033,Khlong San
374,534003ac498e770c08894f6a,ห้องพิเศษ VIP ร.พ.ตากสิน,13.730067700076452,100.50871520275746,Khlong San
375,4ec70dc55c5ce271bd17b678,ศูนย์พัฒนาคุณภาพ รพ.ตากสิน,13.728516062499999,100.5101671125,Khlong San
376,511d880ce4b0f3710c7c7c74,สถาบันฯสมเด็จฯ OPD,13.730949,100.505494,Khlong San
377,4fd31352e4b0a8f570e4b726,ห้องประสานสิทธิ์@Taksin Hospital,13.73022831472125,100.50800125911819,Khlong San
378,509e439e498efdffc68e64fc,ห้องเด็กแรกเกิด ร.พ.ตากสิน,13.730615338273902,100.50795732430687,Khlong San
379,5010a840e4b0abd8741826cb,ห้องการเงิน ศูนย์ประกันสุขภาพ,13.73121616958639,100.51048361020835,Khlong San
380,4c4b2c789e6dbe9ab1a4af0b,Blood Bank - Taksin Hospital,13.73094125717485,100.50770848705682,Khlong San
381,4d70525b42b0721e6ee37b67,โรงพยาบาลตากสิน แผนกโสต ศอ นาสิก,13.730949902015029,100.50653494618345,Khlong San
382,4fd5c14ae4b0b916eb32e964,แผนกโรคระบบประสาท (รพ.สมเด็จเจ้าพระยา),13.730860710144043,100.50563049316406,Khlong San
383,500ca9d0e4b0e68938cbbe75,ห้องคนไข้พิเศษห้อง 1424 ร.พ.ตากสิน,13.7283755,100.504969,Khlong San
384,51ef47f0498e3e0fe330af55,PHLEBOTOMY BLOOD,13.730365,100.507844,Khlong San
385,4f14dafae4b0a6ade3b48356,อนามัยชุมชน รพ.ตากสิน,13.729414722222222,100.50724333333334,Khlong San
386,4e38a35452b11b0b4a9926ee,กลุ่มงานรังษีวิทยา@รพ.ตากสิน,13.731080645456572,100.50869323517784,Khlong San
387,4ec1c87b6da15b4ddfe7d700,แผนกหูคอจมูก ชั้น2 รพ. หัวเฉียว,13.73079226321344,100.50837470586575,Khlong San
388,4e8fb2cd46908c033ed926dc,รพ.ตากสิน ชั้น 10 หอผูู้ป่วยศัลยกรรมหญิง,13.73113,100.505981,Khlong San
389,4ff69ffde4b0fe7c20cdec7c,หอผู้ป่วยกุมารเวชกรรม รพ.ตากสิน,13.727569580078125,100.50531005859375,Khlong San
390,4dccb69145ddbe15f85ed035,หอผู้ป่วยราชพฤกษ์ รพ.สมเด็จเจ้าพระยา,13.730246,100.505603,Khlong San
391,51f5f8a9498ea6be641b85b5,หน้าห้องตรวจอายุรกณม รพ.ตากสิน,13.729948043823242,100.50672912597656,Khlong San
392,4d5b683b1287a093619b1f56,Microbiology Taksin Hospital,13.729177,100.507504,Khlong San
393,51aea31f498ef394a69babda,การเงิน สถาบันสมาด็จฯ,13.729382,100.50522,Khlong San
394,503b1e8ce4b0fc4e9fc0b4d7,คลินิกท่าดินแดง,13.732465,100.502125,Khlong San
395,511d8710e4b01fa64d7ea53f,OPD Somdej Chao Praya,13.730790145102825,100.505546433866,Khlong San
396,50ce81a5e4b0d4bd226487ca,ห้องอายุรกรรม รพ.บางประกอก 3,13.732087283859471,100.49166994682442,Khlong San
397,51aea39a498e737b735fd5fc,แผนกจ่ายยา สมเด็จฯ,13.729485,100.505635,Khlong San
398,5006275ee4b05210d84df69b,ห้องพิเศษ 1539@รพ.ตากสิน,13.729989,100.508275,Khlong San
399,4c80867bd34ca143bf5a1a80,Port Authority of Thailand Hospital (โรงพยาบาลการท่าเรือแห่งประเทศไทย),13.71488539989032,100.56617685603821,Khlong Toei
400,4dca4a8445dd19439a06b2b7,ศูนย์เบาหวานและไทรอยด์ รพ.เทพธารินทร์,13.715158818726474,100.57636184231664,Khlong Toei
401,4fdc2062e4b0735a6dbe362a,คลีนิค หมอเพ็ชร,13.711543,100.570322,Khlong Toei
402,4e59ae2bc65bcd7cbe38caae,"Orthopedic Clinic, Theptarin Hospital",13.715209184042827,100.57633985855466,Khlong Toei
403,50ce6598e4b09a6da30f083d,World Medical Center,13.723804734559907,100.5585127546141,Khlong Toei
404,4d228a8016cfb60cba916a61,Ward 20ES รพ.หัวเฉียว,13.712528,100.561793,Khlong Toei
405,4eba1e55b634fa2e62d5f785,กายภาพบำบัด การท่าเรือฯ,13.717430847888245,100.5697010023409,Khlong Toei
406,4f31f765e4b0d510f5062dd5,สำนักแพทย์และอนามัย กทท.,13.71480927309577,100.56614545404824,Khlong Toei
407,54478b2f498e25a5f10d810c,Theptarin Kids Care,13.714678553639018,100.5768674702892,Khlong Toei
408,4f7e3eb5e4b05c076a301794,กายภาพบำบัด. รพ.นครธน,13.728665203210376,100.5644968692718,Khlong Toei
409,4caabd1944a8224b7c012840,Diabetes Center Theptarin Hospital,13.71383335348298,100.5770213576139,Khlong Toei
410,4d79d5efc307a35d7d2c4b31,Mede Spa @ Theptarin,13.714250444555116,100.57643878552487,Khlong Toei
411,4e321e35c65bfd5a4e23b2aa,คลินิคแพทย์แผนไทย(สุขุมวิท36),13.718029663153846,100.57627940323623,Khlong Toei
412,4c56dfe0d12a20a1e05c65bd,ER- THEPTARIN HOSPITAL,13.713110879793529,100.57696090184857,Khlong Toei
413,5095f03ce4b0625eb82622bc,Charoenkrung Pracharak (12nd Floors),13.71827,100.561934,Khlong Toei
414,5160d0d1e4b08cccfceee607,Ward 6 | Theptarin Hospital,13.715108453321205,100.57640580985634,Khlong Toei
415,4f220b43e4b063d4fe0fe832,ศูนย์ฯ41 คลองเตย,13.715656,100.570457,Khlong Toei
416,5160cf91e4b0e803a13e6386,Theptarin Hospital | Building 1,13.71518875428376,100.57639481796944,Khlong Toei
417,50c93eb8e4b059ad3e8ef0f5,ศูนย์บริการโลหิตเคลื่อนที่ สภากาชาดไทย ตึกวิบูลย์ธานี,13.717613,100.571599,Khlong Toei
418,4c4dbca2ea24c9b63f329114,ICU THEPTARIN HOSPITAL,13.713095650234443,100.57722470911554,Khlong Toei
419,4b493fcaf964a520646b26e3,Theptarin Hospital (โรงพยาบาลเทพธารินทร์),13.714278185012384,100.57699562867954,Khlong Toei
420,4b6abb97f964a52004de2be3,Mongkutwattana General Hospital (โรงพยาบาลมงกุฎวัฒนะ),13.89360565364186,100.56183578815467,Lak Si
421,4f79256be4b0e91fa888a497,กุมารเวช โรงพยาบาลมงกุฎวัฒนะ,13.892052253195741,100.5633593629862,Lak Si
422,4e38f873887777123dce6148,แผนกศัลยกรรมกระดูกและข้อ @โรงพยาบาลมงกุฎวัฒนะ,13.893396170869236,100.56171632316445,Lak Si
423,4f38a88fe4b08533d38b1d24,ศูนย์โรค ตา หู คอ จมูก โรงพยาบาลมงกุฎวัฒนะ,13.891658782958984,100.5713882446289,Lak Si
424,4f3ddae0e4b0fd869c908f2d,ศัลยกรรมกระดูกและข้อ โรงพยาบาลมงกุฏวัฒนะ,13.892362504085474,100.56352971327429,Lak Si
425,514a9d9de4b0ac78b324e1e5,แผนกอายุรกรรม โรงพยาบาลมงกุฎวัฒนะ,13.893807411193848,100.56168365478516,Lak Si
426,5033573ae4b0ca71ea55523e,แผนกรังสีวิทยา โรงพยาบาลมงกุฏวัฒนะ,13.893551,100.56199,Lak Si
427,59817b71e65d0c086001f238,สถาบันโรคผิวหนัง สาขาศูนย์ราชการแจ้งวัฒนะ,13.884524,100.566783,Lak Si
428,4cdcf5475aeda1cd50d1c511,โรงพยาบาลบ้านแพ้ว,13.882403121129855,100.56509295944834,Lak Si
429,4f5c4e67e4b0cfc5e1a37458,แผนกศัลยกรรมกระดูกและข้อ  รพ.มงกุฏวัฒนะ,13.890994490602202,100.56970596313477,Lak Si
430,50408449e4b0047a40eda71d,ประกันสังคมชั้น2@รพ.มงกุฎวัฒนะ,13.892390251159668,100.56397247314453,Lak Si
431,4f0b149ce4b071c57829bb4e,แผนกเด็กอ่อน โรงพยาบาลมงกุฎวัฒนะ,13.893824435519008,100.561540481175,Lak Si
432,4e8ac1b58b810d889276bbae,แผนกหู คอ จมูก,13.893597384544055,100.56169983796367,Lak Si
433,5066c74be4b007c93711f888,แผนกศัลยกรรมทั่วไป,13.893538924755777,100.56180973935798,Lak Si
434,516673abe4b0503b7323d6db,1601 Mongkul Wattana Hospital,13.894448,100.561213,Lak Si
435,5d9aacdd8bdd6b0008e5c43d,หอผู้ป่วย ชั้น 20  โรงพยาบาล มงกุฎวัฒนะ,13.894173,100.561532,Lak Si
436,4fd0598ee4b0aeaed4078ec5,แผนกกายภาพบำบัด,13.893941925993856,100.56140859990334,Lak Si
437,5250023811d280deba6b2bc6,แผนกสูตินารีเวช โรงพยาบาลมงกุฎวัฒนะ,13.893888,100.561779,Lak Si
438,559a6c6d498ef6c95f373d0c,หน่วยอภิบาลผู้ป่วยอาการวิกฤต (ICU)@โรงพยาบาลมงกุฏวัฒนะ,13.894342,100.559778,Lak Si
439,52a3fa6f11d202d38b37aa2e,OR::Mongkutwattana hospital,13.893975,100.560266,Lak Si
440,4f3b4101e4b09800f680aa13,Dermato Clinic (Dermato Clinic (โรงพยาบาลมงกุฏวัฒนะ)),13.893023213866691,100.56158993670057,Lak Si
441,5046ac7de4b0b85009b72621,ร.พ.บ้านแพ้ว@ศูนย์ราชการ อาคารเอ,13.889150232987133,100.56494747951277,Lak Si
442,51c216bf498e2febc4a7cd58,ศูนย์ไตเทียม@รพ. มงกุฎวัฒนะ,13.893854141235352,100.56183624267578,Lak Si
443,4e9cfb089adfe5e71c984f5e,Banphaeo hospital,13.885118318433607,100.56643670709316,Lak Si
444,4f02af9cf790570bd4d2e0d8,Cardiovascular Center,13.893867801038262,100.56169983796367,Lak Si
445,4d00531e75d3236a661eeaf7,Intensive Health Unit @Mongkutwattana Hospital,13.894182112679106,100.56167785770056,Lak Si
446,501a11a1e4b00bf33fb93ebb,Hemodialysis Center (ศูนย์ไตเทียม),13.893492099126307,100.56161764879381,Lak Si
447,4d37ef0f15993704a82cb491,รักษาสัตว์,13.898341661585352,100.56174929357488,Lak Si
448,515a383de4b09355915e610f,ศูนย์จักษุและต้อกระจก โรงพยาบาลบ้านแพ้ว,13.889274,100.56489,Lak Si
449,4df8b559aeb70af3f27774c4,A1101@โรงพยาบาลมงกุฏแจ้งวัฒนะ,13.893739612356335,100.56182072950463,Lak Si
450,4cdb8e24cea2224b2972864c,โรงพยาบาลบ้านแพ้ว สาขาศูนย์ราชการเฉลิมพระเกียรติ แจ้งวัฒนะ,13.88286,100.564401,Lak Si
451,512ec92ae4b089635b869e62,ศูนย์จักษุและต้อกระจก รพ.บ้านแพร้ว,13.885328,100.566438,Lak Si
452,5103ccd2e4b0584e27d56e09,ศูนย์หัวใจ และ หลอดเลือด โรงพยาบาลมงกุฎวัฒนะ,13.893898010253906,100.561767578125,Lak Si
453,4ffe5ce9e4b0190ba1c9db99,ศูนย์โรคตา EYE Center,13.894317,100.562156,Lak Si
454,54d36db2498e32a1ed05427c,ห้องปฏิบัติการหลอดเลือด หัวใจ และสมอง,13.894333128615934,100.55922159636653,Lak Si
455,4e51e00ab61cf637a51687df,ห้องตรวจอายุกรรม ประสาทวิทยา โซน บี อาคารสมเด็จพระเทพรัตน์ รพ.รามาธิบดี,13.893445745671169,100.56163939225273,Lak Si
456,4d68f4eab6f46dcbbc2e1bb2,YAOWAPON Animals Health Care,13.898237,100.561726,Lak Si
457,52d4a77e11d23343f7808b3e,รพ.นวมินทร์ สหคลีนิค3,13.758028615814066,100.79040041639034,Lat Krabang
458,4cb7ad51bac9370411b6d67c,Nawamindra Saha Clinic,13.75810307887478,100.79024617640103,Lat Krabang
459,52bd1361498e5001f2fd0017,Fuda Hospital,13.822515655425496,100.60953580864533,Lat Phrao
460,4ea6561a9a524accd186dcb0,Dr. Skin คลีนิคผิวหนังมหานคร,13.834107698712687,100.60892554199418,Lat Phrao
461,4d18485f85fc6dcb6c14b44e,รพ.สัตว์ นาคนิวาส,13.816861,100.610939,Lat Phrao
462,4fab6a15e4b08190cc13eef1,Ladpraohospital,13.819337,100.606908,Lat Phrao
463,51d41950498e0060711d502e,คลินิคแพทย์สามารถ,13.825093838483332,100.61766758357024,Lat Phrao
464,51d0d283498ed43064a980ea,ห้องพยาบาลสตรีวิทยา๒,13.826291,100.616369,Lat Phrao
465,4d95c957a2c6548143e0ae53,มีนบุรีคลินิกเวชกรรม,13.820171684306171,100.73658050390875,Min Buri
466,52219c8d11d2924a1f59aa6b,ห้องพยาบาล,13.807343406434423,100.74269172193762,Min Buri
467,4c95ed1af244b1f78203301d,Suwinthawong pet hospital,13.817564,100.743937,Min Buri
468,556411b0498ee79ebc176bd0,สูตินารีเวช รพ.นวมินทร์9,13.811580220077415,100.73735677168025,Min Buri
469,516b9d5ae4b0c17e5f6b6f11,รพ.เสรีรักษ์,13.810446938490422,100.7297540287927,Min Buri
470,4d9834dbdaec224b20c9433e,ER@Navamin 9 Hospital,13.81352,100.726972,Min Buri
471,50cea333498ee21adf502b82,เสรีรักษ์,13.81272078578147,100.73867258776295,Min Buri
472,4d830a235ad3a0933ff8b2fd,โรงพยาบาลเวชการุณย์รัศมิ์,13.856508158602105,100.85888523644613,Nong Chok
473,4cbae4944c60a09384c548ca,Wetchakarunrasm Hospital,13.857225792002433,100.85877437051573,Nong Chok
474,4c503d298edf0f47afbdedae,Vetkarunrat hospital เวชการุณย์รัศมิ์,13.856028488047347,100.85900902748108,Nong Chok
475,4f5dd937e4b082b23f3fd091,PS.การแพทย์,13.85560370965763,100.86762362392,Nong Chok
476,4e110feb18a84f0f0310bfa4,kasemrad  hospital prachachuen,13.854575,100.854642,Nong Chok
477,4e99382429c274e1f90bc91f,โรงบาลสัตว์เล็ก@มหานคร,13.853131,100.857149,Nong Chok
478,50a1d7f5e4b0ed37b3f279e8,OPD Orthopaedics @ Wetchakarunrasm Hospital,13.857353,100.858743,Nong Chok
479,4fddb39be4b0929d4aa77157,โรงบาลหนองจอก,13.848825594831768,100.85945360255229,Nong Chok
480,5125b96fe4b07f6520df14ff,ห้องประชุมปิติพัฒน์ รพว,13.857383,100.8588,Nong Chok
481,530cac91498ea7a4f05261bd,หออภิบาลผู้ป่วยหนัก (ไอ.ซี.ยู.) : โรงพยาบาลเวชการุณย์รัศมิ์,13.857255566310092,100.85892439463592,Nong Chok
482,4d3a4578bf6d54815b8ccbe1,Pet Pro,13.703251,100.342389,Nong Khaem
483,4f557c21e4b02285fd846ac5,คลินิคประกันสังคม รพ.ราชพิพัฒน์,13.705163955688477,100.33790588378906,Nong Khaem
484,4ffd0ce4e4b07c449d4c218d,โรงพยาบาลราชพิพัฒน์ หนองแขม,13.705303,100.338048,Nong Khaem
485,532c2cf5498e8e53e1cbf06c,Marvelous clinic,13.744403779735112,100.532091692283,Pathum Wan
486,523ee73111d2337393df6860,อาคารมงคลกาญจนาภิเษก โรงพยาบาลตำรวจ,13.743945692881631,100.53920029313505,Pathum Wan
487,531d96ee498e88c06a14b25f,ตึกเฉลิมพระเกียรติ โรงพยาบาลตำรวจ,13.744664974752471,100.54001336756635,Pathum Wan
488,5e8406bbaf88b80008270166,การเงิน​ Cu​ Vet โรงพยาบาล​สัตว์เล็ก จุฬาฯ,13.742253,100.53454,Pathum Wan
489,5e53741002591a0008bed000,Chula Feline Center (ศูนย์โรคแมว),13.742383,100.534824,Pathum Wan
490,58081fee38fa8285475a135b,อาคารมหาภูมิพลราชานุสรณ์ ๘๘ พรรษา โรงพยาบาลตำรวจ,13.742707420452321,100.5387511036842,Pathum Wan
491,5c20a4d3971317002d7f63cf,TPP Healthcare International,13.741771676018987,100.52486479282379,Pathum Wan
492,5063f173e4b05ef2f2df840b,Police general hospital : OR Minor Surgery,13.742907532989275,100.53807408706433,Pathum Wan
493,4c622454e1621b8d77f82253,Police General Hospital (โรงพยาบาลตำรวจ),13.743214932038553,100.53976065447212,Pathum Wan
494,535a4a7b498ea3c623963faf,ชั้น 14 อาคารมงคลกาญจนาภิเษก,13.745355,100.537981,Pathum Wan
495,4e818906469082117e9a1e05,มูลนิธิสงเคราะห์เด็กของสภากาชาดไทย,13.735105550246152,100.53445933358957,Pathum Wan
496,4e30e00fa809a29c8265d3dc,คลีนิคผิวหนัง Skin Clinic Laser Treatment & Police General Hospital,13.742886799110735,100.53923606872559,Pathum Wan
497,4ffc079ce4b036d9b7ecd06c,สถาบันมะเร็งแห่งชาติ โรงพยาบาลรามาธิบดี,13.754610858219499,100.52749941138649,Pathum Wan
498,51f79efd498e7318a436be9c,ตึกมงคลกาญจนาภิเษก,13.743394733912632,100.53931566136612,Pathum Wan
499,4d49f93c5129a35d313b3fac,แผนกรังสีวิทยา,13.74360762696604,100.54003534265088,Pathum Wan
500,538430cf498eb7855e92ec4e,โภชนาการ โรงพยาบาลตำรวจ,13.743253,100.537289,Pathum Wan
501,5dce12926a739e000741ec86,OR,13.743365,100.535295,Pathum Wan
502,4fceab2be4b084f90d35db40,กลุ่มงานโภชนาการ รพ.ตำรวจ,13.74310250110736,100.53699733710347,Pathum Wan
503,4cbbce5ddd41a35db058f0a0,Institute of Forensic Medicine,13.743892610284979,100.53551407977555,Pathum Wan
504,51358d42e4b06f715e92e714,คลินิกเวชกรรมชุมชนอบอุ่น เพชรบุรี12,13.751551,100.5292,Pathum Wan
505,4e2e8f6f22717d7058571228,เวชศาสตร์ฟื้นฟูโรงพยาบาลราชวิถี,13.753296922042818,100.53696437556917,Pathum Wan
506,4cbd0f9e0180721efce3a761,ห้อง909-1 หอผู้ป่วยมงคลกาญจนาภิเษก,13.744481,100.540349,Pathum Wan
507,4cc0f36843646dcb6e77428c,Veterinary Medical Aquatic animal Research Center (VMARC),13.742094037937914,100.53473949936314,Pathum Wan
508,4bdd40d6b0f5c928930d4ce3,ตึกข้าราชการตำรวจ ศูนย์โรคหัวใจ,13.742960416844484,100.5378583087969,Pathum Wan
509,4b99a963f964a5207a8a35e3,สถาบันนิติเวชวิทยา,13.743465547176877,100.53549587844536,Pathum Wan
510,4f5baef0e4b053fd67f0d8f8,ฉก.14,13.745330568962357,100.53944751095051,Pathum Wan
511,4ed5cbdb775ba3c064842ee6,ห่่่่่่้อง 1401 ตึก มก. รพ.ตำรวจ ,13.743470440707721,100.53943102974212,Pathum Wan
512,4f41dba7e4b08cc3731bf95b,ห้องสูติกรรม โรงพยาบาลสัตว์เล็กจุฬา,13.740957971719103,100.5340308464135,Pathum Wan
513,50fcc0c6e4b02b4f5cdcf428,ห้องผู้ป่วยเดี่ยวพิเศษ,13.742402414137349,100.53943102974212,Pathum Wan
514,4dae38ed6e81e2dffdc411c6,ห้องผ่าตัดศัลยกรรมทั่วไป มก3 โรงพยาบาลตำรวจ,13.743454166749009,100.53926072409516,Pathum Wan
515,4f547fc6e4b0bf6b5f63f96b,"Room 421/2, 4th flr, อาคารสมเด็จย่า 93 ปี",13.741411951376726,100.53567888496187,Pathum Wan
516,4ce3b551bebd37042878a1a0,"Room903, Chalhermprakiart Bld. Police General Hospital",13.743854,100.539714,Pathum Wan
517,52ad288a498eb00c76e88a51,@ Room 912 Police General Hospital,13.741065,100.539484,Pathum Wan
518,4d8c47ed5802236ad2c0d3d1,Ole's Prison,13.7435833,100.5400233,Pathum Wan
519,52004b98498ec644ead3f109,หน่วยทันตกรรม,13.743428687005903,100.54071107906704,Pathum Wan
520,50654fe1e4b0815338e6ecf6,"Admission Unit, Police General Hospital",13.74351,100.54012,Pathum Wan
521,4f6b206de4b026c4ac90b477,อาคารเฉลิมพระเกียรติ รพ.ตำรวจ ชั้น13 ห้อง1310,13.74509926866277,100.53963429818577,Pathum Wan
522,4f088385e4b0c3ff83fec4a8,ห้องคลอด@โรงพยาบาลตำรวจ,13.739679222892308,100.53573382008972,Pathum Wan
523,5323b76a498ecdae904f8604,ตึกข้าชการตำรวจ ชั้น 3 รพ.พยาบาลตำรวจ,13.743133,100.537518,Pathum Wan
524,4fd01f74e4b0007f21ba01a3,ฉกร.4,13.743286160304274,100.54044188266319,Pathum Wan
525,5153936de4b02965ef6f94ce,ศูนย์ฝึกอบรมฯ อาคารเฉลิมพระเกียรติ60พรรษามหาราชินี,13.744298,100.5396,Pathum Wan
526,52f0d96811d2ed0d56f9de29,ห้อง 1403 หอผู้ป่วยมงคลกาญจนาภิเษก โรงพยาบาลตำรวจ,13.741591786727254,100.54033200680672,Pathum Wan
527,502e1677e4b05159d475d563,ICU Neuro Surgery @ Police General Hospital,13.744709078846846,100.53977164198349,Pathum Wan
528,4f2986bce4b0817afd3fb07d,Nursery's Room (หอทารกแรกเกิด),13.74306080957659,100.53910875935881,Pathum Wan
529,4f94f111e4b032461a80ca1e,ตึกฉกร.รพ.ตำรวจ,13.743488207076135,100.53997491118106,Pathum Wan
530,4f34739be4b09a98f5658b12,คลินิกเฉพาะทาง รพ.สัตว์จุฬา,13.745183243172358,100.53767854479509,Pathum Wan
531,4cf395d7cc61a35d82d0209e,CBC | @Police General Hospital,13.742562,100.539891,Pathum Wan
532,4f1e0767e4b07f86b4a37e5b,ICC Neuro,13.74000466855558,100.53920578685705,Pathum Wan
533,4e6960db52b1c1205f5ae5b6,ร้านกาแฟ ตึกฉกร.,13.742713111127049,100.5398265795601,Pathum Wan
534,4f19923fe4b0be3a3ce787a9,โรงพยาบาลเพชรเกษมบางแค,13.719456556459486,100.43076357225155,Phasi Charoen
535,4e43564aae605a14b7d9b7cf,สภากาชาตไทย เขต11,13.71300518613149,100.43589425140614,Phasi Charoen
536,4c428861ff711b8d7fc71305,สถานพยาบาลมะเร็งกรุงเทพ,13.77891667556677,100.54273891750958,Phaya Thai
537,4f1fc16ae4b017841c023ea0,"INTERNATIONAL CUSTUMER SERVICE,PAOLO MEMORIAL HOSPITAL",13.780184430132964,100.54318882179201,Phaya Thai
538,5292ab4911d22acab640bde2,กองออร์โธปิดิคส์และกายอุปกรณ์ โรงพยาบาลทหารผ่านศึก (Veterans General Hospital),13.772205,100.551365,Phaya Thai
539,4ff772c1e4b0484033488719,โรงพยาบาลนวุติสมเด็จย่า,13.78417012030752,100.54597979606481,Phaya Thai
540,5815bd3138fa00325cf73a17,Weclinic (Aesthetic Surgery),13.787794,100.547459,Phaya Thai
541,4cae8a6cb4b0a35d57383ace,Prasarnmit Hospital (โรงพยาบาลประสานมิตร),13.784856836337086,100.54618683246804,Phaya Thai
542,4f9d58e9e4b065054cef5663,อาคารเฉลิมพระเกียรติ รพ.ทหารผ่านศึก,13.772904937618613,100.55159418206635,Phaya Thai
543,5dedea2d4225e4000877b16b,ศูนย์จักษุบ้านแพ้ว,13.784637,100.546067,Phaya Thai
544,5d770291cda09f0008b93963,ช่องจ่ายยา โรงพยาบาลทหารผ่านศึก,13.772746,100.552091,Phaya Thai
545,4ce79515b99754816a4cf744,คลินิกอายุรเวทแพทย์แผนไทยประยุกต์,13.77736963610957,100.5402914574626,Phaya Thai
546,4dead86c7d8b6c7a534b47f6,รพ.ตำรวจ. แผนกฉุกเฉิน,13.771986336803112,100.55205100721366,Phaya Thai
547,5387f437498e579bdbab100b,บริจาคเลือด,13.783839225769043,100.54660034179688,Phaya Thai
548,51aec047498e99e9d4b315ab,ตึกใหม่ โรงพยาบาลทหารผ่านศึก,13.772282,100.551444,Phaya Thai
549,5d1196fa641028002302bd80,ห้องกายอุปกรณ์เสริม (orthotic room) งานกายอุปกรณ์ โรงพยาบาลทหารผ่านศึก,13.772304,100.551348,Phaya Thai
550,4e9b10f693ada5036d926e4c,Phyatai 2 Hospital,13.789402174079317,100.54800165714474,Phaya Thai
551,4d608d0114963704211ee794,ห้องยาชั้น 9 ศูนย์การแพทย์วิชัยยุทธ,13.780468,100.535937,Phaya Thai
552,4d9ff9dac41ca1438ae63da3,แผนกตรวจสุขภาพและวัคซีนเด็ก @ Phyathai 2 Hospital,13.773721671404221,100.53962331069083,Phaya Thai
553,4ce5d8bfe1eeb60c898193ae,Bangkok Cancer Sanatorium,13.779215564343872,100.5427108484806,Phaya Thai
554,4f21e823e4b05160ac668a88,OPD อายุรกรรม โรงพยาบาลทหารผ่านศึก,13.771540464352649,100.55164441584132,Phaya Thai
555,5b6a5aba9d7468002c24055d,โรงพยาบาลวิมุติ,13.788955,100.548096,Phaya Thai
556,4ef56f30722e34060da09416,รพ.พญาไท @ แผนกศัลยกรรมกระดูก,13.7802,100.543,Phaya Thai
557,4cedc6d53b03f04d1b8836dc,GSB Medical Center (ศูนย์บริการทางการแพทย์ ธนาคารออมสิน),13.787298280300167,100.54979279952721,Phaya Thai
558,4cbfd5a4a0c4f04d10715731,รพ.นวุติสมเด็จย่า,13.783505679928316,100.54601825496384,Phaya Thai
559,4ba38c4cf964a520534638e3,Veterans General Hospital (โรงพยาบาลทหารผ่านศึก),13.772796876672224,100.55171239648323,Phaya Thai
560,51b42ebb498e4fcfa80ea599,Room No.1463 Phyathai Hospital,13.772086,100.540771,Phaya Thai
561,528c3024498e40a466be9524,บ้านแสงตะวัน,13.778351,100.547883,Phaya Thai
562,537599e5498ecaac7a2e980b,Ward 15Fl IntouchTower,13.786179,100.548472,Phaya Thai
563,53affd51498e53a187310b48,หอพักข้าราชการ โรงพยาบาลทหารผ่านศึก,13.773362685533433,100.55185320578093,Phaya Thai
564,4d9187c03dd4a093236d7c18,ศูนย์กายภาพบำบัด รพ.พญาไท2,13.77664118768615,100.55454553957526,Phaya Thai
565,4bf76b445ec320a1eb1687d3,ผาติเวช,13.786527,100.545895,Phaya Thai
566,4f7c68bbe4b066eb2377f9ed,ห้องพักแพทย์ ชั้น4,13.771646,100.551817,Phaya Thai
567,4dde1abde4cd1912737858ac,ห้องยาชั้น 11 ศูนย์การแพทย์วิชัยยุทธ,13.779354099524651,100.53549759927319,Phaya Thai
568,4bf76b635ec320a1211787d3,ผาติเวช,13.786693306084665,100.54199664012089,Phaya Thai
569,4f291fb8e4b027f4af881c42,สถาบันโรคปอด,13.78553176068537,100.54634790332994,Phaya Thai
570,4efae3ef2c5b044503e4a48f,Psychiatry Department: Phyathai2 Hospital,13.778826725167306,100.5438590874058,Phaya Thai
571,4d5dddc8b19fa143a35bd2c8,ห้องยาชั้น 14 ศูนย์การแพทย์วิชัยยุทธ,13.777012477420776,100.53800266958412,Phaya Thai
572,505fcf88e4b0fc173045eece,โรงพยาบาลประสานมิตร,13.78923902453821,100.54777089901214,Phaya Thai
573,517c8921e4b0a00e296f6e29,ผาติเวชพหลโยธิน,13.786765,100.546781,Phaya Thai
574,5210077511d29e0d1e423bbc,Nursery phyathai 2,13.772113,100.543063,Phaya Thai
575,568c7682498efc1a2e3d2b5a,แผนกจิตเวช โรงพยาบาลทหารผ่านศึก,13.771113699765626,100.55183122787022,Phaya Thai
576,50bdd0d3e4b0ef9f379039fb,แผนกกายภาพบำบัด รพ.ทหารผ่านศึก,13.77469725264539,100.552496061993,Phaya Thai
577,5153e88de4b0d7cf3a1424e2,ตลาดนัด รพ.เปาโล สะพานควาย,13.790651,100.548641,Phaya Thai
578,5135a84de4b0bb44a1fed60e,สำนักงานแพทย์ดอนเมือง,13.789484,100.544717,Phaya Thai
579,4d587fffde8f6dcb64450d91,Nursery Room Phayathai 2,13.77345,100.548892,Phaya Thai
580,4fc0b0e1e4b07a4edd2ed127,ตึก2 ชั้น18 ห้อง62 รพ.พญาไท2,13.773439407348633,100.55162048339844,Phaya Thai
581,4d86d0869324236a85e0ea0e,ศูนย์สุขภาพธนาคารออมสิน,13.787892,100.548062,Phaya Thai
582,4f7c4595e4b0d1da88bcbb53,โรงพยาบาลพญาไท2 ตึก2 ชั้น15 ห้อง1561,13.771289825439453,100.5430908203125,Phaya Thai
583,545cbe32498e33b00dde95ea,ห้องปฏิบัติการเทคนิคการแพทย์,13.777178409233953,100.54881480946754,Phaya Thai
584,4bc3003cf8219c74c773b510,Ward Orthopedic @ Phyathai 2,13.773949050930003,100.54068910382082,Phaya Thai
585,4fc0fae9e4b00dd50e3dd8dd,ตึก2 ชั้น15 ห้อง62 รพ.พญาไท2:เตียงเฝ้าไข้,13.776533126831055,100.55292510986328,Phaya Thai
586,51b548e3498e2384722796d9,คลีนิคเวชกรรมกล้วยน้ำไท,13.68589074265502,100.6102835282289,Phra Khanong
587,4e4880e7a809fb2fa407254b,สหคลินิกกล้วยน้ำไท สาขาสุขุมวิท93,13.699327,100.605755,Phra Khanong
588,4e7752aaae60c32851f0cd1a,ร.พ.กล้วยน้ำไท2,13.681297032135836,100.6032519042697,Phra Khanong
589,4d1c6772fd7bb60c37959de1,Clinic Kluaynamthai Bangchark,13.69927596033617,100.60479672656281,Phra Khanong
590,5de45f35fe97aa0007a48cda,โรงพยาบาลรวมใจรักษ์,13.693873,100.601638,Phra Khanong
591,5092441de4b0153646d85432,Kluaynamthai Hospital,13.698359437964985,100.6044503762593,Phra Khanong
592,50362bc5e4b0ef6eba55601d,คลินิคเวชกรรม สุขุมวิท 101/1,13.684242314085422,100.61176798942866,Phra Khanong
593,4dd0f39422718eed7a742847,Vichaiyuth Hospital 11/F,13.69844971429709,100.60287257462939,Phra Khanong
594,504d584be4b04421f3a60ffc,Bangkok Naval Hospital,13.689804875739645,100.60970056804733,Phra Khanong
595,51344459e4b0f82cfd8fd855,คลินิกเวชกรรมกล้วยน้ำไท สุขุมวิท101/1(รพ.เครือข่ายกล้วยน้ำไท),13.686027,100.610635,Phra Khanong
596,4eaf6c3c5c5c796442727539,@ 16CD  flr Surgery & Urology,13.682642959646367,100.61225297871688,Phra Khanong
597,502b54cfe4b0a18c183cd1ad,คลีนิคสุขุมวิท 101/1,13.6859130859375,100.61040496826172,Phra Khanong
598,4ce9dab9595cb1f7e71ad114,แพทย์หลวง พระบรมมหาราชวัง,13.752196989198017,100.49177654555777,Phra Nakhon
599,4d22864e2eb1f04d6b1301c2,ตึกจุฑาธุช โรงพยาบาลศิริราช,13.756909652881946,100.48548743391159,Phra Nakhon
600,4c5418ce06901b8dbeae384b,Siriraj Alumni Association Buildings,13.7566013367538,100.48623561859131,Phra Nakhon
601,4f0fc1c3e4b0804e88a50e0a,ศูนย์รับบริจาคเลือด,13.757183453252932,100.48501789566087,Phra Nakhon
602,4d5395555b3f6dcb3943d5cc,ธนาคารเลือด ร.พ.ศิริราช,13.75723806661336,100.48538563095349,Phra Nakhon
603,4f6ee9a4e4b0600333b9d405,X-ray Portable Siriraj Hospital,13.757226,100.485479,Phra Nakhon
604,508ba21ee4b0499bc67a8698,ศูนย์เด็ก SiPH,13.760439988723874,100.485525867424,Phra Nakhon
605,510bafbde4b0eaff6b52e8ac,ER (ห้องฉุกเฉิน) - โรงพยาบาลศิริราชปิยมหาราชการุณย์ (SiPH),13.75953858482849,100.48475170979248,Phra Nakhon
606,4e30bbfe52b1a638f1024a71,ตึกจุฑาธุช @รพ.ศิริราช,13.756509685907231,100.48514702350776,Phra Nakhon
607,5a18c3838ad62e285f107ce6,ศูนย์รังสีวินิจฉัย ตึก 72 ปี รพ.ศิริราช,13.757326,100.484831,Phra Nakhon
608,4d62658014963704c6dafd94,Blood Donation Center I ภาควิชาเวชศาสตร์การธนาคารเลือด,13.758602174782041,100.48507690429688,Phra Nakhon
609,4dcb43731f6ea1401d3c87fd,Department of Forensic Medicine (ภาควิชานิติเวชศาสตร์),13.758632002237917,100.48534468100712,Phra Nakhon
610,4f9cee96e4b02343c8dc53d6,Asadang 10 South Ward (หอผู้ป่วยอัษฎางค์ 9ใต้),13.756396683857432,100.485893731861,Phra Nakhon
611,4f6c2ca7e4b0d6389fc8d077,หอผู้ป่วย 100 ปี (14/2) อาคาร 100 ปี สมเด็จพระศรีนครินทร์,13.75694043556535,100.48528977610327,Phra Nakhon
612,53bcafc4498e537c49528f75,ศูนย์กายภาพ ชั้น 4 รพ.ศิริราชปิยมหาราชการุณย์,13.759994,100.486124,Phra Nakhon
613,4df02334c65b0270f3a26711,วอร์ด อกส (ทารกแรกเกิด) @ Siriraj Hospital,13.75642003276081,100.48530624757096,Phra Nakhon
614,4efa52ad9911b01dde0f1306,MRI (โรงพยาบาลศิริราช),13.759591822439237,100.48465288163104,Phra Nakhon
615,51c510a8498eccfe9b8ff7e4,"ห้องกายภาพบำบัด, ภาควิชาศัลยศาสตร์ออร์โธปิดิคส์ฯ",13.75765859886055,100.48586078871668,Phra Nakhon
616,4ea2764f29c2abc8deccf35c,Emergency Room ศิริราช,13.759657948318628,100.48571803522863,Phra Nakhon
617,5d929f18bf9d57000865ba68,ศูนย์รังสีวินิจฉัยตึก72ปีศิริราช(@อาคาร100ปีสมเด็จพระศรีนครินทร์),13.757397,100.485207,Phra Nakhon
618,56976d30498e77af3021f31f,ตึกสลาก ชั้น1,13.757969267146464,100.48499329019293,Phra Nakhon
619,51038592e4b0a221c701cae5,คลินิกกายอุปกรณ์ โรงพยาบาลศิริราช,13.75714323207562,100.48662185668944,Phra Nakhon
620,503d8afce4b0e0e7fd0e87fa,ศูนย์เลเซอร์ ศิริราช,13.759934826500816,100.48560273449733,Phra Nakhon
621,4de4ab1a8877bcb686786609,หอผู้ป่วย ฉก 7 เหนือ อาคารเฉลิมพระเกียรติ รพ.ศิริราช,13.759729998524037,100.48462542938294,Phra Nakhon
622,4cda339d99026dcbd0cd0481,100 Years Somdej Phrasrinagarindra Building (ตึก 100 ปี สมเด็จพระศรีฯ),13.757315355137,100.48541690868704,Phra Nakhon
623,4e82933030f8eeffd78ef469,Siriraj Piyamaharajkarun Hospital (SiPH) (โรงพยาบาลศิริราช ปิยมหาราชการุณย์),13.759713004944347,100.48598158030394,Phra Nakhon
624,4de4553fd4c070440599aea7,ชั้น6 ตึก84 ปี ศิริราช,13.75774345297317,100.48479014299525,Phra Nakhon
625,5069b3b3e4b064a76df9aacd,CT Brain || OPD Building,13.757980668474394,100.48509760919978,Phra Nakhon
626,503afc6fe4b06e9ad5393666,ICU fl5 @Hermajesty Cardiac Center,13.762354,100.485589,Phra Nakhon
627,4d53cc96d4a6721e37188eac,"4th Flr., OPD Building, Siriraj Hospital",13.755958291744617,100.48580039298298,Phra Nakhon
628,4dd3478ffa7611af69f136f1,Srisavarinthira Building (อาคารศรีสวรินทิรา),13.758679432326627,100.48629248681034,Phra Nakhon
629,4dddf94ad4c01aeee8f2f25e,Adminstrative Building Siriraj Hospital (ตึกอํานวยการ โรงพยาบาลศิริราช),13.757114143091313,100.4860212811198,Phra Nakhon
630,4cc8ccd1786e4688d5799009,72 Years Building (ตึก 72 ปี),13.757180041403776,100.48515106067178,Phra Nakhon
631,4cdd0bf26ad1a0937d18f556,Atsadang Building (ตึกอัษฎางค์),13.757039960821421,100.48574167061287,Phra Nakhon
632,4dbb8ac3815439392f91b5ee,ชั้น 11 ตึก 100 ปี รพ.ศิริราช,13.7547931878598,100.48784837969123,Phra Nakhon
633,4e03047862e189f23d67a94e,สยามินทร์ชั้น16,13.756836366483133,100.48550390541493,Phra Nakhon
634,509cc204e4b0c6336cd081c6,ตึกอัษฎวงค์ ชั้น3,13.758524,100.485704,Phra Nakhon
635,4dc4bdd9e4cd169dc63bcd63,คลินิกโภชนศาสตร์ แผนกกุมารเวชศาสตร์ ศิริราชพยาบาล,13.756684,100.484976,Phra Nakhon
636,4e79418db61c08909535d667,"Allergy Clinic, ENT 5th floor OPD",13.75888442993164,100.48507690429688,Phra Nakhon
637,4d9934ca0caaa143b443c0b3,Department Of Rebabilitation,13.75744,100.485664,Phra Nakhon
638,4e95009777c8c86f23854179,ศรีสังวาลย์ ชั้น1 Siriraj Hospital,13.757448488295283,100.48609941665147,Phra Nakhon
639,4cd8b6ea7d454688b341eded,ห้องศัลยศาสตร์ ตึกผู้ป่วยนอก ชั้น 3,13.758158,100.48568,Phra Nakhon
640,52a18f0c498e85a60b99af79,หน่วยสอนสุขศึกษาและฟื้นฟูสภาพผู้ป่วยมะเร็ง,13.758116,100.486405,Phra Nakhon
641,508a5703e4b07f1e62419547,ห้อง1201 ตึก100ปีพระศรี,13.755842,100.48559,Phra Nakhon
642,4f7a7594e4b0b51585ea93c8,Siriraj Hospital @X-ray,13.75710154786465,100.48503398895264,Phra Nakhon
643,4c1095d23ce120a10d57081c,Chalermphrakiet building,13.757101547864648,100.48481941223145,Phra Nakhon
644,4fe83abfe4b04318c4c18bf1,ห้องเวร 72/6,13.761461,100.48559,Phra Nakhon
645,500cf243e4b0f6804f907348,เฉลิมพระเกียรติ ชั้น2 ประสาทศัลยศาสตร์หญิง,13.759137,100.485593,Phra Nakhon
646,50496cf0e4b00235e8268f30,ห้องจักษุ 103 ตึกสยามมินทร์,13.759139,100.48497,Phra Nakhon
647,50187b3be4b090136cac7241,ตึกเภสัชกรรม,13.7595946833791,100.48628355997099,Phra Nakhon
648,4fe11e46e4b03d2693617832,แผนกการเงิน Hua Chiew Hospital,13.749890067632746,100.51541805267334,Pom Prap Sattru Phai
649,4cf99b0134c1a09330313b0e,Hua Chiew Hospital (โรงพยาบาลหัวเฉียว),13.750052276965404,100.51537931136434,Pom Prap Sattru Phai
650,4d4552242e326ea81f2deda6,BMA General Hospital (โรงพยาบาลกลาง),13.746409781144283,100.50952261222672,Pom Prap Sattru Phai
651,5b7251d9791871002cd10e72,Thonburi Bamrungmuang Hospital (โรงพยาบาลธนบรี บำรุงเมือง),13.750539,100.514379,Pom Prap Sattru Phai
652,54961379498edcbb09ceee15,ศูนย์รังสีวทยา ชั้น3 รพ.หัวเฉียว,13.750137,100.512527,Pom Prap Sattru Phai
653,4d9d638fa695721ea086100d,โรงพยาบาลหัวเฉียว คลีนิกเวชศาสตร์ฟื้นฟู,13.750296691489558,100.51530022231611,Pom Prap Sattru Phai
654,5257512b11d2c2ab5c5720f9,โรงพยาบาลการแพทย์แผนไทยและการแพทย์ผสมผสาน,13.74942960725314,100.51644592154548,Pom Prap Sattru Phai
655,58fd766b14994630ac66853a,Orthopaedic Surgery (กลุ่มงานศัลยกรรมกระดูก),13.746403,100.509387,Pom Prap Sattru Phai
656,4e365fd5b61cddd1cd473447,หอผู้ป่วยศัลยกรรมชั้น 9 รพ.กลาง,13.747012,100.508603,Pom Prap Sattru Phai
657,513d1b65e4b0d54adea19398,ศูนย์บริการสาธารณสุข20 บมจ.ธ.นครหลวงไทย,13.749159,100.513705,Pom Prap Sattru Phai
658,514a7517e4b0ab4d75747d15,แผนกศัลยกรรม รพ.หัวเฉียว,13.749928207480487,100.51534416065054,Pom Prap Sattru Phai
659,4f459dbee4b0190ed2ae6b21,โรงพยาบาลกลาง@ศัลยกรรมกระดูก,13.746472812718256,100.50969194164057,Pom Prap Sattru Phai
660,5d46c4cb8eacc70008248562,Women & Children's Ward (หอผู้ป่วยแม่และเด็ก),13.750224,100.51553,Pom Prap Sattru Phai
661,4f0ce495e4b04a8cd72450dc,ห้องตรวจโรคหัวใจ ชั้นที่6 โรงพยาบาลกลาง,13.7462360305634,100.51000031533921,Pom Prap Sattru Phai
662,4c369d27ae2da593e194fdc5,มูลนิธิตงฮั้วจั่งอุยซ้อสถานการแพทย์,13.744901312232775,100.51199941520846,Pom Prap Sattru Phai
663,53c5ffea498e684dd003a2c3,แผนกสูตินารี โรงพยาบาลหัวเฉียว,13.749848695530956,100.51415234079637,Pom Prap Sattru Phai
664,4e90f15eb8039b45582067c5,NICU(ICUเด็กน้อยย^^)@Fr.7 Klang Hospital,13.746656556500332,100.50904471708432,Pom Prap Sattru Phai
665,4e224cc218a88345f055ee4b,วอร์ดผู้ป่วยกุมารเวชกรรม 20/15,13.748898,100.518309,Pom Prap Sattru Phai
666,58e98d80409f56690a6f2f46,Private Ward 19 Fl. หอผู้ป่วยพิเศษ ชั้น 19,13.749899,100.51532,Pom Prap Sattru Phai
667,50481492e4b05b0ac31b4223,แผนกตา รพ. กลาง,13.746447172839593,100.50963235391075,Pom Prap Sattru Phai
668,50698a9fe4b0da82c7afdc3d,ห้องผ่าตัด รพ.หัวเฉียวเฉลิมพระเกียรติ,13.750060945316342,100.5122520518146,Pom Prap Sattru Phai
669,4e62ac3fc65b2dc89fbe4725,OPD Huachiew Hospital,13.750265236822017,100.51533222198486,Pom Prap Sattru Phai
670,50b30fc3e4b0065e6221f947,คลินิค ศูนย์แพทย์พัฒนา ศัลยกรรมกระดูกและข้อ,13.757167878942697,100.50163642313439,Pom Prap Sattru Phai
671,51986f5f498ef1752f2e3ca2,ศูนย์สายตาและเลสิค @ โรงพยาบาลมิชชั่น,13.7578706741333,100.51968383789062,Pom Prap Sattru Phai
672,4e811c766c25475dc9285e65,Ward เด็กน้อย Fl.15@ Klang Hospital,13.746418,100.506165,Pom Prap Sattru Phai
673,4f98f09be4b0ef3c7aede77c,แผนกรังสีวิทยา โรงพยาบาลรามาธิบดี,13.756226168641152,100.51332301907983,Pom Prap Sattru Phai
674,4e5c81042271b7fb296594f5,กลุ่มงานชันสูตรโรคกลาง โรงพยาบาลกลาง,13.746138430064748,100.51049459421229,Pom Prap Sattru Phai
675,4f224e88e4b006e5bff03f59,R.1112 @. ร.พ.กลาง,13.746535775166784,100.51017056664979,Pom Prap Sattru Phai
676,55b71ed4498ef87896f54dd4,ห้องคลอด รพ.หัวเฉียว,13.750121,100.51239,Pom Prap Sattru Phai
677,5142e54de4b0823a355d5b32,OPD ประกันสังคม,13.747208983025153,100.51152709646654,Pom Prap Sattru Phai
678,4e380701aeb7c8fe3177077f,OR ชั้น 5 รพ.กลาง,13.746522,100.508801,Pom Prap Sattru Phai
679,4e60560ab61cd78087a3bc97,Acupuncture,13.747017980741056,100.50966800869061,Pom Prap Sattru Phai
680,50360b46e4b0419538824d69,ห้องผู้ป่วยศัลยกรรมหญิง,13.746816288881774,100.50818249043776,Pom Prap Sattru Phai
681,4f9f3702e4b0704c7152206c,แผนกตา@โรงพยาบาลกลาง,13.748482,100.513107,Pom Prap Sattru Phai
682,4f0967aee4b05f830e8420e8,play room @ mission,13.7568403315761,100.51592634557133,Pom Prap Sattru Phai
683,5088ba7ae4b035c4ea27f4bc,ห้องพิเศษ 1509 รพ.กลาง,13.74662656748866,100.51013761475852,Pom Prap Sattru Phai
684,4d186070e190721ec77a2121,Bangkok Animal Hospital,13.748422733475048,100.51597595214844,Pom Prap Sattru Phai
685,53153e62498e405988cc3809,Operative room,13.750153,100.514798,Pom Prap Sattru Phai
686,5007cce4e4b0d9d6f956ec1c,ห้องพิเศษ 1109 รพ.กลาง,13.746561446866838,100.50990695185168,Pom Prap Sattru Phai
687,4f0cd933e4b040d4813ddbaa,ห้องเอ็กซเรย์ ชั้นที่1 โรงพยาบาลกลาง,13.74598672133369,100.50891291121127,Pom Prap Sattru Phai
688,4f0cf99be4b023b378671870,หน่วยเก็บสิ่งส่งตรวจ รพ. กลาง,13.74615428699461,100.51021450252327,Pom Prap Sattru Phai
689,4d8aa6dff607a0930cab0487,ห้องผ่าตัด 8 รพ.กลาง,13.746718585395476,100.51020351855291,Pom Prap Sattru Phai
690,4f08719ee4b06fab19533b4e,หอพักพยาบาลมิชชั่น ห้อง204 A,13.75781365602444,100.51874395317212,Pom Prap Sattru Phai
691,4e7aef5b775b9c9b501dedd5,Pantry ปกส. Huachiew hospital,13.7482126,100.515525,Pom Prap Sattru Phai
692,4e43336db61cac6fc746c4ae,Ramathibodi Hospital / Somdech Phra Debaratana Medical Center,13.758065,100.509301,Pom Prap Sattru Phai
693,4ec088ac02d5a63a3f741103,ห้องผ่าตัดเล็ก Fr.2,13.74642000495372,100.51248272062888,Pom Prap Sattru Phai
694,4e01ea0c45dd1e4999df4252,OR 6 โรงพยาบาลกลาง,13.746684620224983,100.51021450252327,Pom Prap Sattru Phai
695,4f0ee3ede4b0b30607e6ee0b,MRI Hëart ^^*,13.70604759962194,100.67133648546246,Prawet
696,56a9e60f498e8757cbd97281,Intensive Care Unit,13.673286,100.505335,Rat Burana
697,5225dec011d2cc09f1dabd5c,ร.พ. สุขสวัสดิ์,13.675503963136341,100.501015889043,Rat Burana
698,4e2ea1c262e1fbac61027525,ศูนย์บริการสาธารณสุข 39 (ราษฎร์บูรณะ),13.68094049706425,100.50668871572576,Rat Burana
699,588468b76d349d4a5e739d63,โรงพยาบาลสัตว์สกายเพ็ท,13.674612,100.504338,Rat Burana
700,51dfe997498ebc0bc608086f,แผนกสูติ-นรีเวช โรงพยาบาลราษฎร์บูรณะ,13.67802878473073,100.50258096098153,Rat Burana
701,56bec324cd10f62cdd6f9327,รพ.ราษฎร์บูรณะ,13.677452,100.505738,Rat Burana
702,4e035a53227144bc81ce9442,OR ร.พ.ราษฎร์บูรณะ,13.678039607367444,100.50268530006278,Rat Burana
703,5769decd498e47372331070c,คลินิกเวชกรรม การไฟฟ้านครหลวง,13.678989,100.51315,Rat Burana
704,56a96fe5498e782af1da6b45,หน่วยไตเทียม โรงพยาบาลสุขสวัสดิ์,13.676155,100.501007,Rat Burana
705,56aaf259498e7cbb26185ef1,Hemodialysis Unit Suksawad Hospital,13.675733,100.501736,Rat Burana
706,4f1d4ff3e4b0d7904486167a,ห้องนอนเวรดมยา,13.669378,100.511091,Rat Burana
707,4cc596e1d43ba14339766ef8,Rajburana Hospital (โรงพยาบาลราษฎร์บูรณะ),13.678020875675932,100.50272934680747,Rat Burana
708,5315e9a2498e94e50865c55b,Suksawat Hospital (โรงพยาบาลสุขสวัสดิ์),13.676324823628672,100.50133963824176,Rat Burana
709,50f03588e4b0ba8e26ab64ae,ห้องกู้ชีพ โรงพยาบาลราษฎร์บูรณะ,13.678255,100.50278,Rat Burana
710,4ee09f2af5b9120fe9719bf6,เคหะClinic@บางปะกอก,13.669977923447547,100.50286652085512,Rat Burana
711,4dbe261b4b222080d3ba6c32,Suksawat Animal Hospital,13.676446,100.500926,Rat Burana
712,4c31f14eed37a593e9006b03,Navamin 2,13.676208,100.500457,Rat Burana
713,4e871bf2dab4b1d6a4e647e5,ICU1@Bumrungrad,13.676767385062703,100.50049420434722,Rat Burana
714,4caf260fef1b370445f52f00,Nawamin2 hospital,13.670142142765823,100.51090100328464,Rat Burana
715,4d04470aa2685481531ab7bd,รพ.สัตว์สุขสวัสดิ์,13.676473,100.5011,Rat Burana
716,4e45c58cd4c065cb6b96e9cc,โรงพยาบาล กรุงธน 2,13.675909400754712,100.50101039760966,Rat Burana
717,4db8cf980437609120f502e8,Bhumirajanakarindra Kidney Institute Hospital (โรงพยาบาลสถาบันโรคไตภูมิราชนครินทร์),13.759580659279722,100.53439225032668,Ratchathewi
718,4f9118d2e4b06a3a4c2a46d6,Fever Clinic (คลินิกไข้เฉียบพลัน),13.765777080086602,100.53340459952368,Ratchathewi
719,566a1ef6498efb2d8069585a,Physical Therapy and Rehabilitation Unit (หน่วยกายภาพบำบัดและเวชศาสตร์ฟื้นฟู),13.765796661376953,100.53336334228516,Ratchathewi
720,537c960e498ee27a2f7b1c00,OPD,13.760033,100.534704,Ratchathewi
721,4d29c1d2c406721ef1ea7db6,"Department Of Medicine, Phramongkutklao Hospital",13.768249,100.534618,Ratchathewi
722,5675c419498eb9c89eb92f72,โรงพยาบาลเด็ก,13.766038453240053,100.53515736509185,Ratchathewi
723,4daa4bf50cb6a89c626bc573,ตึกกัลยานิวัฒนา รพ.สงฆ์,13.761692506386407,100.52701053377788,Ratchathewi
724,53bb8ee7498eb3d61c8c8812,ห้องจ่ายยาผู้ป่วยนอก รพ.ราชวิถี,13.763493,100.53691,Ratchathewi
725,4fed264fe4b0bfd1e4ef47c8,โอพีดีเด็ก อาคารพัชรกิติยาภา,13.76788856771558,100.53492078355467,Ratchathewi
726,4e3a108dd4c05163b44c8835,สถาบันสุขภาพจิตเด็กและวัยรุ่น ราชนครินทรื,13.765963550154904,100.52764223005607,Ratchathewi
727,4e5dfc1a1f6e3022a71e4d82,อาคารเจริญ พูลวรลักษณ์ แผนกโสต ศอ นาสิก รพ.ราชวิถี,13.764735707180511,100.53640403129658,Ratchathewi
728,4ea913afd3e30cbc43cf7cab,คลีนิคนมแม่,13.7656608,100.5360742,Ratchathewi
729,57e9f3db498e1eafac0660fe,อาคารเฉลิมพระเกียรติ 80 พรรษามหาราชินีสถาบันสุขภาพเด็กแห่งชาติฯ,13.765319,100.53496,Ratchathewi
730,5189ab2a498e0f6caab3e15d,ศูนย์พัฒนาการจัดการความรู้ โรงพยาบาลราชวิถี,13.763771,100.535723,Ratchathewi
731,586d94b414f8f478eddcde11,OPD Psychiatry (หน่วยตรวจผู้ป่วยนอกจิตเวช),13.765697,100.526845,Ratchathewi
732,4f680d90e4b0b4f791ac215d,ห้องจ่ายยาชั้น1โรงพยาบาลพระมงกุฏ,13.768089185774766,100.53440989265947,Ratchathewi
733,4f5ff4cee4b00e918e457fca,เวชศาสตร์นิวเคลียร์ รพ.พระมงกุฎเกล้า,13.768453264025748,100.53428354373689,Ratchathewi
734,4f72ac55e4b025753438759e,Childen Hospital,13.766273416979676,100.53534927488509,Ratchathewi
735,4d1a777e53248cfab0c1b896,ตึกศักดิเดชน์,13.768572009304563,100.53438791892131,Ratchathewi
736,4dda0b2cb0fb8af380c4eac6,Blood Bank Rajavithi,13.764902,100.536002,Ratchathewi
737,5dccb66a6f3d030007582639,หน่วยตรวจผู้ป่วยนอกมะเร็ง,13.765968,100.526948,Ratchathewi
738,57aa9932498e8edefe8f54c0,แผนกโสต คอ นาสิก ชั้น6 รพ.พระมงกุฏ,13.767556,100.534159,Ratchathewi
739,4f095640e4b0aa2dc7517d64,ตึกอุบัติเหตุโรงพยาบาลพระมงกุฏ,13.767201919948851,100.53370124225462,Ratchathewi
740,4fc0aa38e4b0c592342b72a8,หอผู้ป่วยพิเศษสูติกรรม6ก,13.765251,100.535996,Ratchathewi
741,4ee805224901e2d61919c0d2,แผนกสูติ-นรีเวช โรงพยาบาลราชวิถี,13.764229440005009,100.53681135177612,Ratchathewi
742,4d292799888af04df7c9ccaf,คลินิคนวดแผนไทยประยุกต์ มหิดล,13.766520703231706,100.53457998586339,Ratchathewi
743,4dc3aa67fa76d685cdb327a6,กองรังสีกรรม รพ.พระมงกุฎเกล้า,13.76827757479672,100.53464611067693,Ratchathewi
744,4d48fdadb73fb1f78c01a332,ตึกอายุรกรรม โรงพยาบาลราชวิถี,13.763849987605205,100.53682505831608,Ratchathewi
745,53f55bb8498e585977324605,แผนกทางเดินอาหาร ชั้น4 อาคารเฉลิมพระเกียรติ รพ.พระมงกุฏเกล้า,13.768396,100.534514,Ratchathewi
746,595f23649be5224b9be2234e,Extended special OPD service (TMD) (คลินิก TMD รพ.เวชศาสตร์เขตร้อน),13.765675,100.533229,Ratchathewi
747,595ee5e0018cbb53ab4a3fbc,Opd 3 Trop.Med. (แผนกตรวจผู้ป่วยนอก รพ.เวชศาสตร์เขตร้อน),13.76568,100.533226,Ratchathewi
748,508e8686e4b0c2bf40fd88ee,หอพักหกชั้น โรงพยาบาลราชวิถี,13.76299,100.536058,Ratchathewi
749,4b53c0acf964a5204eaa27e3,Rajavithi Hospital (โรงพยาบาลราชวิถี),13.764361588692315,100.53623922480845,Ratchathewi
750,4e6986deae609509551834e4,หน่วยรับบริจาคโลหิต รพ.พระมงกุฏเกล้า,13.768152,100.535843,Ratchathewi
751,4d6b07df6107f04dec982a7a,อายุรกรรม รพ.ราชวิถี,13.763512273724155,100.53623128237419,Ratchathewi
752,4c75feee2db5236a98babe79,Phramongkutklao Hospital (โรงพยาบาลพระมงกุฎเกล้า),13.767670594147118,100.53426157002899,Ratchathewi
753,4c85d40474d7b60c3f1b9fd8,Phyathai 1 Hospital (โรงพยาบาลพญาไท 1),13.756338204438213,100.53945332765579,Ratchathewi
754,4d95692179b788bfa642576a,อาคารเฉลิมพระเกียรติ 6 รอบพระชนมพรรษา,13.764018,100.53548,Ratchathewi
755,50e68a98e4b0ee666979848e,โรงพยาบาลทันตกรรม,13.763639584939076,100.5329945606074,Ratchathewi
756,4d1d56625c4ca1cd2994863d,Hospital For Tropical Diseases (โรงพยาบาลเวชศาสตร์เขตร้อน),13.76578536113212,100.53362718923592,Ratchathewi
757,4be8f1fc947820a19484b5db,ตึกสิรินธร,13.764581085231706,100.53576776591407,Ratchathewi
758,4bda54af2a3a0f475bdeaab6,Institute of Dermatology (สถาบันโรคผิวหนัง),13.764901257929727,100.53484391147005,Ratchathewi
759,4c86d553b504a14377e0b11c,อาคารเฉลิมพระเกียรติ ๖ รอบฯ (โรงพยาบาลพระมงกุฎเกล้า),13.767464249223641,100.53429088645768,Ratchathewi
760,4eab6bd79a522a65af2a5eec,ตึกอุบัติเหตุฉุกเฉิน (ER) โรงพยาบาลรามาธิบดี,13.76602794895148,100.52737558965156,Ratchathewi
761,4bc92931b6c49c7458148e91,Priest Hospital (โรงพยาบาลสงฆ์),13.761337650162258,100.52690967206387,Ratchathewi
762,4d9a8e407668f04da3eebe93,อาคารสมเด็จย่า 90 ปี,13.767586241658664,100.53389351120344,Ratchathewi
763,4d7ae1914755f04da079f224,อาคารพัชรกิติยาภา,13.768043078339115,100.53510571233534,Ratchathewi
764,4be254a9d27a20a1967f8f5b,Queen Sirikit National Institute of Child Health (สถาบันสุขภาพเด็กแห่งชาติมหาราชินี),13.765808384622325,100.53537368774414,Ratchathewi
765,4dc9ed85887769ff3d440c91,หอผู้ป่วยออโทพีดิก,13.764566,100.527555,Ratchathewi
766,50a1a9dbe4b006efbc70088a,Travel Clinic (คลินิกเวชศาสตร์ท่องเที่ยวและการเดินทาง),13.76589964304863,100.53349164846053,Ratchathewi
767,52e44eec498e1382630d5f46,Samitivej Chinatown Hospital (โรงพยาบาลสมิติเวชไชน่าทาวน์),13.737721560956208,100.51277848057705,Samphanthawong
768,4d4b6c7157b2a1cd815ee682,ศูนย์บริการสาธารณสุข13,13.73979637262502,100.5057551189106,Samphanthawong
769,4ceba2ecfe90a35dbb05540e,Thian Fah Foundation Hospital (โรงพยาบาลเทียนฟ้ามูลนิธิ),13.738090576008227,100.51245016377496,Samphanthawong
770,58fd766b14994630ac66853a,Orthopaedic Surgery (กลุ่มงานศัลยกรรมกระดูก),13.746403,100.509387,Samphanthawong
771,4c79cd5a81bca09374dafe14,ศูนย์บริการสาธารณสุข 23 สี่พระยา,13.730845878716611,100.52029877664337,Samphanthawong
772,5be28c9c03132000399742f4,คลินิคศัลยกรรมลูกเป็ด รพ.ตากสิน,13.730532,100.507996,Samphanthawong
773,4e365fd5b61cddd1cd473447,หอผู้ป่วยศัลยกรรมชั้น 9 รพ.กลาง,13.747012,100.508603,Samphanthawong
774,51cbd1cd498eaace9d04b002,ห้องประชุมนายแพทย์ อรุณ ตึกวิชาการ สถาบันจิตเวชศาสตร์สมเด็จเจ้าพระยา,13.730935,100.504578,Samphanthawong
775,4fbc7b9ee4b06c46324edcd3,ห้องเจาะเลือด  รพ.ตากสิน,13.729727377951939,100.50849003531626,Samphanthawong
776,4f0ce495e4b04a8cd72450dc,ห้องตรวจโรคหัวใจ ชั้นที่6 โรงพยาบาลกลาง,13.7462360305634,100.51000031533921,Samphanthawong
777,5969f29e3c858d0ea700ee3b,Teeraporn Clinic,13.729411,100.508612,Samphanthawong
778,5d5253635f56190008457864,ห้องจ่ายยานอก 1 รพ.ตากสิน,13.730656,100.508256,Samphanthawong
779,4d8c22e5c640224bd42e7254,Operating Room @Taksin Hospital,13.729980744649678,100.50834567743287,Samphanthawong
780,4f44c0c4e4b0a28181e7da6f,ผู้ป่วยนอกสูตินารีเวชกรรม ANC โรงพยาบาลตากสิน,13.730579318907017,100.50788593028346,Samphanthawong
781,4c369d27ae2da593e194fdc5,มูลนิธิตงฮั้วจั่งอุยซ้อสถานการแพทย์,13.744901312232775,100.51199941520846,Samphanthawong
782,4f459dbee4b0190ed2ae6b21,โรงพยาบาลกลาง@ศัลยกรรมกระดูก,13.746472812718256,100.50969194164057,Samphanthawong
783,4b55f1a3f964a520eff727e3,Taksin Hospital (โรงพยาบาลตากสิน),13.730356641002906,100.50799027541339,Samphanthawong
784,4ee6bb6f93adf8e1a9cb972e,ภาควิชาสูติศาสตร์-นารีเวชวิทยา,13.733485253373576,100.51602520752914,Samphanthawong
785,4d4552242e326ea81f2deda6,BMA General Hospital (โรงพยาบาลกลาง),13.746409781144283,100.50952261222672,Samphanthawong
786,4c0c467b009a0f47ef76ecbf,mECT รพ สมเด็จเจ้าพระยา,13.730675,100.504683,Samphanthawong
787,4e90f15eb8039b45582067c5,NICU(ICUเด็กน้อยย^^)@Fr.7 Klang Hospital,13.746656556500332,100.50904471708432,Samphanthawong
788,50481492e4b05b0ac31b4223,แผนกตา รพ. กลาง,13.746447172839593,100.50963235391075,Samphanthawong
789,4e83fc3429c2cfe7239a221c,รพ.ตากสิน ชั้น 5 ห้องผ่าตัด,13.730532120436813,100.50814404740059,Samphanthawong
790,4ee5d9442c5b5fc6cdaa9fb0,"Taksin Hospital, 5th Floor - ICU zone",13.731100597690606,100.50770469955104,Samphanthawong
791,4f224e88e4b006e5bff03f59,R.1112 @. ร.พ.กลาง,13.746535775166784,100.51017056664979,Samphanthawong
792,4f0cf99be4b023b378671870,หน่วยเก็บสิ่งส่งตรวจ รพ. กลาง,13.74615428699461,100.51021450252327,Samphanthawong
793,5010a840e4b0abd8741826cb,ห้องการเงิน ศูนย์ประกันสุขภาพ,13.73121616958639,100.51048361020835,Samphanthawong
794,4d8aa6dff607a0930cab0487,ห้องผ่าตัด 8 รพ.กลาง,13.746718585395476,100.51020351855291,Samphanthawong
795,4ec088ac02d5a63a3f741103,ห้องผ่าตัดเล็ก Fr.2,13.74642000495372,100.51248272062888,Samphanthawong
796,4e5c81042271b7fb296594f5,กลุ่มงานชันสูตรโรคกลาง โรงพยาบาลกลาง,13.746138430064748,100.51049459421229,Samphanthawong
797,4fd31352e4b0a8f570e4b726,ห้องประสานสิทธิ์@Taksin Hospital,13.73022831472125,100.50800125911819,Samphanthawong
798,5088ba7ae4b035c4ea27f4bc,ห้องพิเศษ 1509 รพ.กลาง,13.74662656748866,100.51013761475852,Samphanthawong
799,4f0cd933e4b040d4813ddbaa,ห้องเอ็กซเรย์ ชั้นที่1 โรงพยาบาลกลาง,13.74598672133369,100.50891291121127,Samphanthawong
800,4e8fb2cd46908c033ed926dc,รพ.ตากสิน ชั้น 10 หอผูู้ป่วยศัลยกรรมหญิง,13.73113,100.505981,Samphanthawong
801,534003ac498e770c08894f6a,ห้องพิเศษ VIP ร.พ.ตากสิน,13.730067700076452,100.50871520275746,Samphanthawong
802,50360b46e4b0419538824d69,ห้องผู้ป่วยศัลยกรรมหญิง,13.746816288881774,100.50818249043776,Samphanthawong
803,509e439e498efdffc68e64fc,ห้องเด็กแรกเกิด ร.พ.ตากสิน,13.730615338273902,100.50795732430687,Samphanthawong
804,4d3121702c76a143324662c7,Physiotherapy @ Mahaesak,13.7290533,100.5183313,Samphanthawong
805,5006275ee4b05210d84df69b,ห้องพิเศษ 1539@รพ.ตากสิน,13.729989,100.508275,Samphanthawong
806,4d70525b42b0721e6ee37b67,โรงพยาบาลตากสิน แผนกโสต ศอ นาสิก,13.730949902015029,100.50653494618345,Samphanthawong
807,5007cce4e4b0d9d6f956ec1c,ห้องพิเศษ 1109 รพ.กลาง,13.746561446866838,100.50990695185168,Samphanthawong
808,4e380701aeb7c8fe3177077f,OR ชั้น 5 รพ.กลาง,13.746522,100.508801,Samphanthawong
809,4f14dafae4b0a6ade3b48356,อนามัยชุมชน รพ.ตากสิน,13.729414722222222,100.50724333333334,Samphanthawong
810,4e361592b0fb59390ea65dc3,Surgery OPD | Klang Hospital,13.746134840987088,100.50969825734146,Samphanthawong
811,511d8710e4b01fa64d7ea53f,OPD Somdej Chao Praya,13.730790145102825,100.505546433866,Samphanthawong
812,4f8fbb0ce4b01d8f6d83c704,ฝ่ายบุคคล รพ.เลิดสิน,13.73109440062134,100.51802443889999,Samphanthawong
813,4e01ea0c45dd1e4999df4252,OR 6 โรงพยาบาลกลาง,13.746684620224983,100.51021450252327,Samphanthawong
814,4ec70dc55c5ce271bd17b678,ศูนย์พัฒนาคุณภาพ รพ.ตากสิน,13.728516062499999,100.5101671125,Samphanthawong
815,4f31e1e2e4b015f62bc7541b,Meeting Room Fl.16,13.752725,100.706177,Saphan Sung
816,58573da203cf255eb3f16c3b,โรงพยาบาลบ้านแพ้ว สาขาสาทร ชั้น 10 TPI Tower,13.708037324914606,100.53830360006151,Sathon
817,4d13197137f1236acdcc7e1b,Shoulder & Joint Centre,13.724883283263319,100.53454477107715,Sathon
818,51aae284498e5c2e3bf5e613,คลีนิคนมแม่,13.718457,100.525096,Sathon
819,4caaa6008882199ce2bd45d4,กลุ่มบางรักโรคติดต่อทางเพศสัมพันธ์ Bangrak-STIs Cluster (โรงพยาบาลบางรัก) สำนักโรคเอดส์ วัณโรคและโรคติดต่อทางเพศสัมพันธ์ กรมควบคุมโรค กระทรวงสาธารณสุข,13.720872558441155,100.52758723497391,Sathon
820,4e7b34412c5b34450c4f6f43,ER Room (ห้องฉุกเฉิน),13.720202,100.524251,Sathon
821,5024c58be4b0bb3db3bafee4,Cardiometabolic Centre,13.724855609918885,100.5350526268279,Sathon
822,4f5ac4f2e4b05cd768c19243,แผนกเด็ก โรงพยาบาลบีเอ็นเอช,13.724502892473756,100.53477222708865,Sathon
823,4d80aaa61013236a85f78b35,Surgery/Orthopedic Center (ศัลยกรรม/ศูนย์กระดูกไขข้อและกล้ามเนื้อ),13.718649605828201,100.52519757521368,Sathon
824,4bff6a11369476b09dd38d1f,แผนกกระดูกและกล้ามเนื้อ โรงพยาบาลเซนต์หลุยส์,13.718551669222126,100.52520450492794,Sathon
825,4e06efa5483b98d4170d9241,Rehabilitation And Physical Medicine,13.725114097268333,100.53453252562372,Sathon
826,4d8a9774f607a0939e480387,OPD Cashier,13.72460428063721,100.53514601592771,Sathon
827,51c42f4d498ebaa347be34b6,Digestive Care Center,13.72459456719152,100.53504713335441,Sathon
828,4dc7671045dd264552a1425d,Well Child Care Center@St.Louise hospital,13.718413723636584,100.52508800665912,Sathon
829,5a857e6f2632ec4dedd53403,Negative Pressure Room Bnh,13.725187,100.534985,Sathon
830,5ccff05fccad6b003939506e,Labour & Delivery Suites,13.72469,100.535138,Sathon
831,4db4fbb3f7b121c29f5650b7,OPD Pediatrics,13.724353845250308,100.53492078355467,Sathon
832,4d7c201c645ea35d786040f8,"Labour Suite Number 3, BNH hospital",13.724446,100.53384,Sathon
833,4dbfbf81fa8cc78a86191a70,ห้องกายภาพ ร.พ.เซ็นหลุยส์,13.718255,100.525877,Sathon
834,4cba7c11adcd548199a223a2,Eye Exam,13.725156,100.535096,Sathon
835,55c034ac498eac735ea03dcf,Pediatrics Clinic Floor 2 Zone B,13.724395,100.534839,Sathon
836,4e311020628430b0810a1ce2,แผนกหูตาคอจมูก โรงพยาบาลเซ็นหลุยส์,13.720410123098457,100.5250275850315,Sathon
837,4d9d06f2c99fb60cb6febe8b,Paediatrics Clinic,13.724619,100.534977,Sathon
838,4f5ab4f8e4b0b28dd342b975,IVF Centre,13.724909067034043,100.5350746007252,Sathon
839,4f25f0c2e4b0b2f9910044d4,ห้องประชุมชั้น11 อาคารจิตเพียรธรรม รพ. เซ็นหลุยส์,13.718488516588721,100.52474744891452,Sathon
840,4b13cd33f964a520489923e3,BNH Hospital (โรงพยาบาล บีเอ็นเอช),13.724776601175895,100.53458171964343,Sathon
841,4e72ae09a8095a7c41f84918,Louis Way Building At SLH☆彡,13.719623,100.525005,Sathon
842,4e531cd8c65bea7986cfec6a,Bangrak Hospital (โรงพยาบาลบางรัก),13.720627105932476,100.52755983464263,Sathon
843,4d9ec76fa77d816e48f2f208,ตึกเสริมคุณ,13.719651,100.525101,Sathon
844,4f516e8de4b07e4c6196f273,Orthopedic Center -St.Louis Hospital,13.72029318801782,100.52628546167371,Sathon
845,4e550cfa52b14687067aed45,Laboratory Department (แผนกปฏิบัติการการแพทย์),13.718509306877971,100.52497265631365,Sathon
846,4d301a242748b60cb685d8a0,OPD ENT @ BNH,13.724868,100.530616,Sathon
847,57175d52498eb12cfaeaa882,sathorn international clinic,13.719051,100.538691,Sathon
848,4eb5ffd3f790d87d02ff06ca,Gastrointestinal & Liver Center @ 3th Chulalongkorn Hospital,13.7241482,100.5373284,Sathon
849,51147483e4b03e31888e8ae7,Room 1702,13.718946,100.525591,Sathon
850,502f9f6be4b045150ad0fe27,Room 2509,13.723318,100.531423,Sathon
851,50d9ee79e4b0be0986c3ff05,Ward16 Saint Louis Hospital,13.718666,100.525155,Sathon
852,4d97f962c19fb60c4adca465,Diabetes Clinic,13.719229,100.525107,Sathon
853,500df5c1e4b05ed56b2e8ead,ห้องกินข้าว OR BNH,13.725132,100.534501,Sathon
854,500ce46ae4b0ba42c2c97052,New Born,13.7199239,100.5259572,Sathon
855,4dddee2545dd033c3923a823,The Swan Lake@St.Louis,13.719009457616375,100.52452773491184,Sathon
856,505fb0ebe4b0533a72c10d12,EENT ward @saintlouis hospital,13.718552061810616,100.52756532766789,Sathon
857,4e1ff3bb22717a5245bb5b34,Serology Section (หน่วยภูมิคุ้มกันวิทยา),13.719968,100.524605,Sathon
858,506fe57ee4b0983fb20a3dea,ห้อง1416,13.718350092468627,100.52537363671046,Sathon
859,54f55503498e6ed27bdf7ea4,CT Scan room BNH,13.724906,100.534512,Sathon
860,4fa09fb7e4b0200a4ab39438,ห้องประชุมโรงพยาบาลเซนต์หลุยส์,13.718582,100.525396,Sathon
861,4d7f06d887003704abc37c99,M Center 7Fl. @Bnh Hospital,13.722306,100.535782,Sathon
862,5184ecc6498e7509839e21a1,Room2522@BNH,13.725382,100.534908,Sathon
863,4b56a1dcf964a520351728e3,Saint Louis Hospital (โรงพยาบาลเซนต์หลุยส์),13.719299986734509,100.52514842832655,Sathon
864,4c2c3d8b57a9c9b63e35f767,Vibharam Hospital (โรงพยาบาลวิภาราม),13.734811836898954,100.64532248168828,Suan Luang
865,52032295498e67916936d53a,แผนกสูตินารี วิภาราม,13.734683,100.645542,Suan Luang
866,54c8621c498e6e760c14e89e,รังสีวินิจฉัย รพ.วิภาราม,13.737163693749203,100.64400315849629,Suan Luang
867,5203193d498e334e6a2d1903,แผนกอายุรกรรม โรงพยาบาลวิภาราม,13.735958059749317,100.64516915759395,Suan Luang
868,4dd1f835d22d67839c51c3c6,"Children's Clinic, Vibharam Hospital",13.73481351910242,100.64422865717957,Suan Luang
869,5aace332492814138285564f,สูติ-นรีเวช Vibharam,13.73491,100.645141,Suan Luang
870,584502408d8e9967675eb430,ศูนย์หัวใจ,13.734649,100.645586,Suan Luang
871,4fc24486e4b01f4bd2664687,Ward 10,13.734222716599266,100.64555416051189,Suan Luang
872,4f5e00fce4b0090c0be0e676,Pharmacy1 Vibharam Hospital,13.734784945718294,100.64527573934635,Suan Luang
873,5428c4bb498e51a58d7bf46b,แผนกศัลยกรรม โรงพยาบาลวิภาราม Vibharam Hospital,13.734386446384853,100.64615366823394,Suan Luang
874,5086292be4b0ba77dbd52437,Wellness. Center @ Samitivej Srinakarin Hospital,13.746737181436226,100.64109922440439,Suan Luang
875,50c09658e4b05a389c5f106f,X-ray Department @ Vibharam hospital,13.734724,100.645347,Suan Luang
876,4fffea06e4b0b435845ca722,OB&GYN W.8 Vibharam Hospital,13.7347565830432,100.64522415791306,Suan Luang
877,51737f29498ece19a9b96ab3,ศูนย์ศัลยกรรม โรงพยาบาลวิภาราม,13.732235975668873,100.64839223127603,Suan Luang
878,514dc2ede4b069b905dcf764,เวชระเบียนรพ.วิภาราม,13.735079941764017,100.6450481570066,Suan Luang
879,4f36a50de4b0571dc698954f,EMERGENCY ROOM,13.734660245740061,100.64540015915314,Suan Luang
880,5084d3e7e4b0ca3a2c3c3f5d,ศูนย์ศัลยกรรม(กระดูกและข้อ),13.734676843327453,100.64563116128706,Suan Luang
881,5021eeb4e4b036f181103205,ห้องยาชั้น 1,13.734784,100.645216,Suan Luang
882,4fd5af9de4b02bbdc682d7c4,Ward 12,13.73478729388423,100.64526265815583,Suan Luang
883,512600a2e4b06bb31cb0ed51,ICU โรงพยาบาลวิภาราม ชั้น 3,13.733422352256811,100.6456806618191,Suan Luang
884,574aabf7498edf7f6c7d297f,แผนกไตเทียม โรงพยาบาลวิภาราม,13.734901,100.645344,Suan Luang
885,4e2cd1c8c65bcaf4003daf0e,โรงพยาบาลเกษมราษฏร์,13.742094878213862,100.63962529262095,Suan Luang
886,4f5e116fe4b0a61f4d7d8a50,ห้องพักแพทย์ OR Vibharam Hospital,13.734850012989035,100.64502065689511,Suan Luang
887,5003e7a7e4b0f448ea2a2ed8,ศูนย์ศัลยกรรม@รพ.วิภาราม,13.7383845037739,100.64200669404845,Suan Luang
888,5012c4fce4b0c3be96e5fc52,@NS' Nursery (Vibharam Hospital),13.734990746938665,100.64418465739348,Suan Luang
889,4e33ab09fa76f00388c42290,คลินิคโรคกระดูกและข้อ,13.734941677873278,100.6450591570535,Suan Luang
890,514aa47de4b0db8433e73d72,Phayathat Hospital 2,13.733360589166928,100.63608905176612,Suan Luang
891,4f34dbf2e4b093c6b40b1756,"Operating room , 3 fl",13.7347789,100.6450748,Suan Luang
892,4d588aa9e319a1cdd80c1234,แผนกโรคหัวใจ โรงพยาบาลรามคำแหง,13.74098,100.644559,Suan Luang
893,4fdab08fe4b08b81606e8fec,สำนักงานอนามัยสวนหลวง,13.733107566833496,100.64197540283203,Suan Luang
894,4ed4827d6c2528aaadbf5d78,Nursery Vibharam Hospital,13.734474182128906,100.6446762084961,Suan Luang
895,508b98f0e4b0306b57912008,อบรมครรภ์คุณภาพ @ วิภาราม,13.734771,100.645345,Suan Luang
896,4fdfe5d0e4b0906ec6ff981e,Pharmacy 2 @Vibharam Hospital,13.73472,100.645232,Suan Luang
897,5144b78be4b01c6636dd54f2,w.1022 @ Vibharam Hospital,13.734471321105957,100.64544677734375,Suan Luang
898,4f0ba2e8e4b0a87afa103239,Vibharam Domitory 7th.floor.,13.73414301966261,100.64488865647333,Suan Luang
899,50fd278fe4b00aff081313be,LR Vibharam Hospital,13.73484304847422,100.64488865647333,Suan Luang
900,4f0ba19fe4b0b63c7464cfc8,domitory 7th.,13.734720480143093,100.64514165744662,Suan Luang
901,5116932fe4b046a901d73010,ห้อง 811 (โรงพยาบาลวิภาราม),13.735116004943848,100.64546966552734,Suan Luang
902,4f9a61b3e4b08ea037e4f228,ทันตกรรม snh,13.74402904510498,100.64154052734375,Suan Luang
903,4d196f48bb488cfaf52fbdd4,กายภาพบำบัด @ วิภาราม,13.7348376161398,100.64580166323074,Suan Luang
904,4f518b68e4b02cf6bcdbf7c2,Nurse Station | Vibharam Hospital,13.734737412311384,100.64300217095386,Suan Luang
905,503f19dbe4b0ed99b838129c,คลังยา @วิภาราม,13.732763290405273,100.64654541015625,Suan Luang
906,5242c9b011d26c102e213b2f,Phisical Therapy Vipharam Hospital,13.734268,100.645504,Suan Luang
907,4d64f28136a96dcbf09655f4,Vibhavadi 2 Hospital,13.731630495516654,100.63815688386426,Suan Luang
908,5021ea44e4b007e7796450c5,cosmetic & laser clinic,13.73474,100.64527,Suan Luang
909,51fb26b6498e58fcd996120b,Nursery@SNH,13.745906957852743,100.63862435229525,Suan Luang
910,508e8486e4b070200768d24d,OPD 4 pharmacy,13.739875793457031,100.64371490478516,Suan Luang
911,5667ed72498e70644e3db0a4,ห้องพิมมาดา <3,13.734417,100.645539,Suan Luang
912,4d0815c5790fa09307c4c173,Pediatric Dep. @ Vibharam Hospital,13.734862,100.645094,Suan Luang
913,4fc6f5a2e4b01153fc6dec59,Pharmacy 4 @ Vibharam Hospital,13.734804,100.645181,Suan Luang
914,4f8fa4efe4b07a23fdf5fad5,QSMC Ramathibodi Hospital,13.78152,100.424814,Taling Chan
915,4e350f19e4cd9aba7cc0e1a9,มูลนิธิสถาบันกัลยาราชนครินทร์ คลินิกแพทย์แผนไทย,13.778541806824666,100.43666250638111,Taling Chan
916,5159357ce4b0b5f7dc1cc029,ตึกหมอแวลล์ @รพ.กรุงเทพคริสเตียน,13.77590475412691,100.41913693491249,Taling Chan
917,4f5c3e7de4b0a4baa346a481,Icu รพ. ธนบุรี 2,13.780358348389342,100.42302145975522,Taling Chan
918,4d116c35f6f3721e775e94e9,"3rd Floor, Thonburi2 Hospital",13.786726974295695,100.37277690850424,Thawi Watthana
919,4d761109b8e28cfa2aaf0067,คลินิกสัตวแพทย์รุ่งเรือง,13.786718493738768,100.3740601009752,Thawi Watthana
920,51720c5d498e1d91486f34b2,โรงพยาบาลราชพิพัฒน์,13.783416064421054,100.36558259455833,Thawi Watthana
921,4bda3c293904a59306d1459e,Somdejprapinklao Hospital (โรงพยาบาลสมเด็จพระปิ่นเกล้า),13.709993649888919,100.48709392547607,Thon Buri
922,507e2c99498e5d07b074cdaa,เจริญนครธนบุรี คลีนิกเวชกรรม,13.701935,100.488391,Thon Buri
923,5a728f31a6fe4d4b8d1de446,ห้องตรวจประกันสังคมและประกันสุขภาพ,13.710709,100.486384,Thon Buri
924,538a90ff498e2e0dbcaf8faf,รพ.สมเด็จพระปิ่นเกล้า ตึก 80 พรรษา,13.71011494027087,100.4848011239133,Thon Buri
925,4e5ef3a788771c946898cc92,OR ชั้น 3 อาคาร 100 ปี รพ. สมเด็จพระปิ่นเกล้า,13.710191138457144,100.48509760919978,Thon Buri
926,4e6d7630aeb7ba66d9aca391,ห้องตรวจโรคศัลยกรรมกระดูก รพ. สมเด็จพระปิ่นเกล้า,13.710255,100.487436,Thon Buri
927,4dc141921f6e7441cf48ef8b,อาคาร 100 ปี,13.710341760116966,100.4850174993648,Thon Buri
928,4dda4a451838b8561d2c148a,ตึก 100 ปี รพ.สมเด็จพระปิ่นเกล้า,13.709928164730595,100.48468111827673,Thon Buri
929,51413d07e4b0e38bdeabfe28,อาคารนิติเวช รพ.สมเด็จพระปิ่นเกล้า,13.710613120042652,100.48725539222166,Thon Buri
930,4dbe16ce0437955ec05d6748,ห้อง MRI รพ สมเด็จพระปิ่นเกล้า,13.71142198597665,100.48493838550034,Thon Buri
931,4d380b28803ba35d8a0998fc,อาคารเทียมทิพย์ รพ สมเด็จพระปิ่นเกล้า,13.710604356361765,100.48456503446621,Thon Buri
932,58f9cb22ba4a64209c58061e,Ear Nose Throat Clinic (คลินิกหู คอ จมูก),13.714167,100.489601,Thon Buri
933,4f532214e4b0336534cc3d9d,โรงพยาบาล สมเด็จพระปิ่นเกล้าอาคารร้อยปี,13.7097009,100.4824179,Thon Buri
934,55347e75498ef644469dbb33,ห้องตรวจระบบประสาทและศัลยกรรมประสาท โรงพยาบาลสมเด็จพระปิ่นเกล้า,13.710697752638591,100.48644827657384,Thon Buri
935,53250d5c498edea3698d4dfc,ห้องปิ่นเพชร สโมสรกรมแพทย์ทหารเรือ,13.709633827209473,100.48388671875,Thon Buri
936,4d6480144306721e3dcf83f9,ENT Departmen Of Somdejprapinklao Hospital,13.711241,100.485977,Thon Buri
937,524e32d311d2be53cbc25ab6,โรงพยายาลสมิติเวช,13.714071,100.49364,Thon Buri
938,4c52c280b6dabe9af7eabb13,Samitivej Thonburi Hospital (โรงพยาบาลสมิติเวช ธนบุรี),13.714108998067461,100.4897229386678,Thon Buri
939,55d17c70498e0624a3550eef,อาคาร 80 ปี โรงพยาบาลสมเด็จพระปิ่นเกล้า,13.709649,100.484665,Thon Buri
940,4e277c9cb0fba988bb62df86,ห้องตรวจสูตินรีเวชกรรม โรงพยาบาลสมเด็จพระปิ่นเกล้า,13.70995294792947,100.48497132831193,Thon Buri
941,5062e620e4b0ec7eed882db2,Children Center Phyathai3 Hopital,13.70702937340185,100.48609139097644,Thon Buri
942,50303672e4b08345cd3cf56f,ICUศัลยกรรม รพ.ทหารเรือ อาคาร100ปี ชั้น4,13.710181,100.485246,Thon Buri
943,4f5584bae4b01eb4127bc3d3,อายุรกรรม,13.710721,100.4843,Thon Buri
944,504d657ce4b0d1cf348796e8,โรงพยาบาลสมเด็จพระปิ่น,13.710218,100.482306,Thon Buri
945,4d0ea4af3a1d236a87284f30,OB-GYN Somdejprapinklao Hospital,13.710118727630018,100.48722267150879,Thon Buri
946,4e584c69887710a84823ad99,มูลนิธิตงฮั้วการแพทย์ในพระบรมราชูปถัมภ์,13.70333735194276,100.48526781415097,Thon Buri
947,4e40e1e7483b72d779dadbe0,เวชศาสตร์ใต้น้ำและการบิน รพ.สมเด็จพระปิ่นเกล้า,13.711159041058984,100.4850536853929,Thon Buri
948,58aa5bb57a8f046a8279f33d,คลินิก หู คอ จมูก โรงพยาบาลสมิติเวช ธนบุรี,13.714057,100.486099,Thon Buri
949,4ce8ba84fe90a35dddc9440e,ศูนย์แพทย์ชุมชนธนบุรี,13.708792,100.487314,Thon Buri
950,5098842de4b01bdce5fdbf34,แผนกศัลยกรรมกระดูก,13.710107721270004,100.48481210483267,Thon Buri
951,4ce8ba17f8653704eae8b2c4,ศูนย์แพทย์ชุมชนธนบุรี โรงพยาบาลบ้านแพ้ว,13.708828803663401,100.4870247870231,Thon Buri
952,514597e1e4b0238f329127b6,โรงพยาบาลสมเด็จพระปิ่นเกล้า,13.700798,100.49058,Thon Buri
953,4f7ab11be4b0be46387c7aae,คิดราคายา กองเภสัชกรรม รพ.สมเด็จพระปิ่นเกล้า,13.710931053474814,100.48541605743146,Thon Buri
954,51de3620498ee8a04cd9c78a,คลีนิคตา. ชั้น5 อาคาร100ปี,13.711303,100.484943,Thon Buri
955,4d3fb96daae1b1f7c46880f5,ศูนย์สุขภาพดี@ โรงพยาบาลกรุงธน1,13.71516159431092,100.49001171846595,Thon Buri
956,50d93f3de4b023bf97f4a002,บริจาคโลหิต. สมเด็จพระปิ่นเกล้า,13.710702178529028,100.48464190073081,Thon Buri
957,514eab0ae4b0919413a79156,ห้อง044วอร์ด10 โรงพยาบาลสมิติเวช ธนบุรี,13.714390754699707,100.49028778076172,Thon Buri
958,51ef79e5498e9ab40151b087,Prapinklao MRI Center,13.71143,100.484814,Thon Buri
959,4e6d68552271a8cabfcd2b81,แผนกศัลยกรรม รพ เจริญกรุงประชารัษ์,13.697693149389542,100.48839744559527,Thon Buri
960,560670d4498e922d14b8f7cc,หน้าห้องผ่าตัด รพ.สมิติเวช ธนบุรี,13.714648067008175,100.49014349710234,Thon Buri
961,4eb74e7a82313162700f67c6,อาคารนิติเวช,13.7114849724605,100.48492701851733,Thon Buri
962,4e546b8a22710ebb5a8ac1d2,แผนกโรคไต รพ สมเด็จพระปิ่นเกล้า,13.710600969907786,100.4848200402635,Thon Buri
963,4dba16465da389d2c234375b,ห้องตรวจโรคศัลยกรรมทางเดินปัสสาวะ รพ สมเด็จพระปิ่นเกล้า,13.710469933965994,100.4851085901548,Thon Buri
964,4f288acbe4b0ca64403c8a61,ห้องกายภาพบำบัด โรงพยาบาลกรุงธน1,13.714463233947754,100.4890365600586,Thon Buri
965,4d6fa42f0187236a28e49eba,Operation room@Somdejprapinklao Hospital,13.713933,100.485948,Thon Buri
966,4fe1d6c8e4b01d6ee813f04b,วอร์ด10 โรงพยาบาลกรุงธน1,13.716022491455078,100.4896240234375,Thon Buri
967,4f1ea914e4b00eb69c82f798,รพ. กรุงธน1,13.713875746165078,100.48892034220741,Thon Buri
968,4ec8882f93ad41338e28fc3f,สำนักงานผลประโยชน์ ตึกเภสัชชั้น3,13.711148312064365,100.48526781415097,Thon Buri
